~VERSION INFORMATION
 VERS.                2.0:   CWLS LOG ASCII STANDARD - VERSION 2.0
 WRAP.                 NO:   ONE LINE PER DEPTH STEP
~WELL INFORMATION
#MNEM.UNIT      DATA TYPE    INFORMATION
#----------   ------------   ------------------------------
 STRT.F           12.0000:   START DEPTH
 STOP.F          449.0000:   STOP DEPTH
 STEP.F            0.5000:   STEP LENGTH
 NULL.          -999.2500:   NO VALUE
 COMP. LAWRENCE-ALLISON &AS:   COMPANY
 WELL. NPR 3 #58-66SX3LI1:   WELL
 FLD .            WALDCAT:   FIELD
 LOC .       S3 T38N R78W:   LOCATION
 CNTY.            NATRONA:   COUNTY
 STAT.            WYOMING:   STATE
 CTRY. UNITED STATES OF AMERICA:   COUNTRY
 SRVC.      Dresser Atlas:   SERVICE COMPANY
 DATE.        11-JAN-1985:   LOGDATE
 API .       490251100100:   API NUMBER
~CURVE INFORMATION
#MNEM.UNIT       API CODE    CURVE DESCRIPTION
#----------   ------------   ------------------------------
 DEPT.F                  :   
 DT  .US/F   60 520 00 00:   INTERVAL TRANSIT TIME
 CALD.IN     45 280 60 00:   CALIPER FROM DENSITY LOG
 CORR.G/C3   45 356 01 00:   DENSITY CORRECTION
 GRD .GAPI   45 310 01 00:   GAMMA RAY FROM DENSITY LOG
 NPHI.DEC    42 890 03 00:   NEUTRON POROSITY SANDSTONE
 DPHI.DEC    45 890 12 00:   DENSITY POROSITY SANDSTONE
 RHOB.G/C3   45 350 01 00:   BULK DENSITY
 RD  .OHMM   11 220 10 00:   RESISTIVITY DEEP
 RMLL.OHMM   11 270 04 00:   MICRO LATEROLOG
 RS  .OHMM   11 220 09 00:   RESISTIVITY SHALLOW
~PARAMETER INFORMATION
#MNEM.UNIT          VALUE    DESCRIPTION
#----------   ------------   ------------------------------
 PD  .                 GL:   PERMANENT DATUM
 EPD .F              5184:   ELEVATION PERMANENT DATUM
 LMF .                 GL:   LOG MEASURED FROM
 DMF .                 GL:   DRILLING MEASURED FROM
 EGL .F              5184:   GROUND LEVEL
 DATE.        11-JAN-1985:   RUN DATE
 RUN .                  1:   RUN NUMBER
 DD  .F               451:   DEPTH DRILLER
 DL  .F               451:   DEPTH LOGGER
 BLI .F               442:   BOTTOM LOG INTERVAL
 TLI .F                20:   TOP LOG INTERVAL
 CS  .IN            8.625:   CASING SIZE
 CBD .F                20:   CASING BOTTOM DRILLER
 CBL .F                20:   CASING BOTTOM LOGGER
 BS  .IN            7.875:   BIT SIZE
 BSD .F               451:   BIT SIZE AT DEPTH
 DFT .          WATER-KCL:   DRILLING FLUID TYPE
 MSS .           MUD TANK:   MUD SAMPLE SOURCE
 RMS .OHMM           0.14:   RESISTIVITY MUD SAMPLE
 MST .F                90:   MUD SAMPLE TEMPERATURE
 RMF .OHMM           0.10:   RESISTIVITY MUD FILTRATE SAMPLE
 MFST.F                90:   MUD FILTRATE SAMPLE TEMPERATURE
 RMC .OHMM           0.17:   RESISTIVITY MUD CAKE
 MCST.F                90:   MUD CAKE SAMPLE TEMPERATURE
 MFSS.               CALC:   MUD FILTRATE SAMPLE SOURCE
 MCSS.               CALC:   MUD CAKE SAMPLE SOURCE
 TCS .HRS               7:   TIME CURCULATED STOPPED
 MRT .F               100:   MAXIMUM RECORDED TEMPERATURE
 LUN .               6270:   LOGGING UNIT NUMBER
 LUL .                 FM:   LOGGING UNIT LOCATION
 ENGI.          E. GOVETT:   RECORDING ENGINEER
 WITN.         MR. GROOMS:   WITNESSED BY
 CLNT.            A2DTECH:   CLIENT CODE
 ORIG.           5" PRINT:   ORIGIN OF DATA
 UWI .       490251100100:   UNIQUE WELL ID
 DICO. A2D Technologies, Inc.:   DIGITIZING COMPANY
~OTHER INFORMATION
~A   DEPT       DT       CALD       CORR        GRD         NPHI     DPHI       RHOB         RD       RMLL         RS   
# ...
  112.5000   103.3077     8.3345     0.0230   101.5987     0.2715     0.1398     2.4456    41.1673     6.9084     8.9988
  113.0000   103.4521     8.3365     0.0260   100.5434     0.2667     0.1407     2.4411    42.3033     7.3673     9.0061
  113.5000   104.1228     8.3385     0.0335    99.9385     0.2679     0.1419     2.4434    38.4242     7.8374     9.0122
  114.0000   104.6432     8.3405     0.0410   101.5847     0.2731     0.1407     2.4471    35.3819     7.8959     9.0183
  114.5000   104.8628     8.3425     0.0339   100.9799     0.2800     0.1398     2.4470    33.4963     7.5809     8.9607
  115.0000   104.4057     8.3445    -0.0029   100.3760     0.2824     0.1419     2.4396    32.8293     7.3788     8.9683
  115.5000   104.0238     8.3450    -0.0165   104.7250     0.2867     0.1452     2.4373    32.6191     7.2320     9.2901
  116.0000   103.6419     8.3424    -0.0241   106.9729     0.2933     0.1480     2.4366    32.4157     7.3888     9.6902
  116.5000   103.8615     8.3399    -0.0226   106.1456     0.2953     0.1470     2.4381    31.9966     7.6015     9.6297
  117.0000   104.1563     8.3373    -0.0016   103.6600     0.3033     0.1446     2.4434    31.1429     7.7663     9.5700
  117.5000   104.1503     8.3347     0.0180   101.1031     0.3018     0.1419     2.4486    30.3017     7.8800     9.5766
  118.0000   104.1443     8.3321     0.0150    98.6964     0.2895     0.1392     2.4502    29.9149     7.8295     9.6577
  118.5000   103.9845     8.3295     0.0074    96.8903     0.2882     0.1374     2.4502    29.9402     7.6751     9.8601
  119.0000   103.4511     8.3269     0.0028    96.2713     0.2880     0.1380     2.4494    30.1688     7.6815    10.0736
  119.5000   103.0737     8.3243     0.0030    97.0308     0.2880     0.1398     2.4456    30.3992     7.7402    10.1503
  120.0000   102.9073     8.3218     0.0223   102.5820     0.2883     0.1398     2.4488    30.6262     7.9080    10.1572
  120.5000   102.9115     8.3192     0.0268   103.9301     0.2892     0.1374     2.4554    28.2061     8.0237    10.1641
  121.0000   103.0559     8.3166     0.0223   104.3754     0.2916     0.1356     2.4622    26.3353     8.1411    10.1003
  121.5000   103.3493     8.3158     0.0237   105.5881     0.2928     0.1332     2.4653    24.9318     8.2032    10.1077
  122.0000   104.0952     8.3158     0.0467   109.6208     0.2777     0.1296     2.4668    23.9326     8.2658    10.0432
  122.5000   104.5403     8.3158     0.0523   111.1180     0.2765     0.1284     2.4652    23.1305     8.2142     9.9135
  123.0000   104.9855     8.3158     0.0191   111.2649     0.2874     0.1296     2.4517    22.6551     8.0509     9.8520
  123.5000   105.2803     8.3158     0.0039   106.4547     0.2953     0.1371     2.4456    22.0713     7.6751     9.7232
  124.0000   105.4262     8.3193     0.0054   103.4474     0.2932     0.1444     2.4381    21.7822     7.5747     9.6628
  124.5000   105.2684     8.3308     0.0068   103.2929     0.2792     0.1471     2.4366    21.6427     7.7403     9.6043
  125.0000   104.7361     8.3459     0.0053   104.0383     0.2693     0.1459     2.4381    21.9634     7.6390     9.6775
  125.5000   104.3542     8.3459     0.0143   104.3354     0.2681     0.1438     2.4441    22.4400     7.5377     9.8189
  126.0000   104.1227     8.3459     0.0294   104.6314     0.2706     0.1417     2.4486    22.9269     7.4908     9.8937
  126.5000   104.0430     8.3459     0.0323   105.2266     0.2809     0.1396     2.4502    23.2626     7.6017     9.9691
  127.0000   104.3363     8.3459     0.0323   107.6607     0.2836     0.1384     2.4517    23.1172     7.7665     9.9759
  127.5000   104.5559     8.3459     0.0383   109.7214     0.2869     0.1374     2.4517    22.8148     7.8257     9.9122
  128.0000   104.6266     8.3459     0.0458   110.7682     0.2875     0.1387     2.4476    22.6726     7.8310     9.8520
  128.5000   104.6192     8.3308     0.0276   110.0131     0.2800     0.1429     2.4418    22.6886     7.8363     9.8589
  129.0000   104.4628     8.3308     0.0140   104.9037     0.2729     0.1453     2.4403    22.8651     7.8418     9.8656
  129.5000   104.4569     8.3158     0.0159   103.2457     0.2706     0.1441     2.4441    23.1999     7.8472     9.8724
  130.0000   104.4509     8.3158     0.0305   103.0922     0.2776     0.1387     2.4517    23.2156     7.8536     9.7449
  130.5000   104.4450     8.3158     0.0380   103.0879     0.2927     0.1338     2.4585    22.9115     7.8034     9.6175
  131.0000   104.4391     8.3008     0.0395   103.2348     0.2930     0.1329     2.4592    22.7648     7.7012     9.4265
  131.5000   104.4330     8.3008     0.0274   102.6289     0.2933     0.1364     2.4509    22.3115     7.6533     9.2392
  132.0000   104.4271     8.3008     0.0056   101.2732     0.2936     0.1468     2.4411    21.8709     7.6056     9.2455
  132.5000   104.4211     8.3008    -0.0060   100.4980     0.2921     0.1526     2.4290    21.7344     7.5582     9.2517
  133.0000   104.4150     8.3008    -0.0060   100.0623     0.2731     0.1544     2.4237    21.7495     7.5646     9.2564
  133.5000   104.4844     8.3008     0.0075   100.0580     0.2737     0.1532     2.4260    21.7645     7.5697     9.2425
  134.0000   104.5536     8.3008     0.0181   100.0537     0.2891     0.1505     2.4298    21.7824     7.5749     9.2307
  134.5000   104.5462     8.3008     0.0116   100.8002     0.2931     0.1511     2.4298    21.6430     7.5801     9.2189
  135.0000   104.6906     8.3008    -0.0032   102.3173     0.2940     0.1523     2.4298    21.3631     7.5864     9.1545
  135.5000   104.8350     8.3008    -0.0093   103.3441     0.2960     0.1532     2.4290    21.0797     7.6443     9.0362
  136.0000   105.4305     8.3008    -0.0063   103.0384     0.3114     0.1545     2.4266    20.3790     7.7026     8.7959
  136.5000   106.7028     8.3008    -0.0003   103.9350     0.3164     0.1623     2.4199    19.5623     7.6547     8.5027
  137.0000   108.7269     8.3008     0.0089   106.7836     0.3079     0.1665     2.4086    18.5197     7.2974     7.9865
  137.5000   109.6984     8.3008     0.0177   108.4309     0.3131     0.1707     2.3995    17.4117     6.8611     7.4492
  138.0000   109.9195     8.3008     0.0237   108.2754     0.3140     0.1713     2.3958    15.8095     6.4509     7.0215
  138.5000   109.7616     8.3008     0.0222   106.3191     0.3067     0.1647     2.3958    15.1674     5.9818     6.9767
  139.0000   108.5527     8.3008     0.0176   105.2638     0.3019     0.1547     2.4147    15.2971     5.5085     7.2282
  139.5000   107.4189     8.3008     0.0128   105.1104     0.2998     0.1496     2.4260    16.0684     5.3246     7.5918
  140.0000   106.5107     8.3008     0.0069   109.9098     0.2850     0.1478     2.4350    17.1141     5.8633     8.0847
  140.5000   106.1288     8.3008     0.0054   111.4070     0.2865     0.1472     2.4366    18.1020     7.0837     8.5504
  141.0000   105.8221     8.3008     0.0069   105.6959     0.2944     0.1433     2.4381    18.4948     7.3382     8.7961
  141.5000   105.6657     8.3008     0.0189   102.6886     0.2959     0.1369     2.4444    18.5073     7.2913     8.8631
  142.0000   105.6598     8.3008     0.0315   103.5852     0.2854     0.1351     2.4532    18.6486     7.2975     8.9307
  142.5000   105.6538     8.3008     0.0475   105.8332     0.2757     0.1336     2.4577    18.6613     7.2508     8.9988
  143.0000   105.6479     8.3158     0.0565   104.2712     0.2757     0.1336     2.4592    18.6739     7.2569     9.0050
  143.5000   105.7925     8.3158     0.0595   100.5683     0.2810     0.1348     2.4577    18.6868     7.2618     9.0124
  144.0000   105.8615     8.3041     0.0534    98.9123     0.2999     0.1357     2.4561    18.6997     7.3172     9.0185
  144.5000   106.0059     8.3008     0.0441    98.4586     0.3126     0.1363     2.4524    18.7150     7.3222     8.9609
  145.0000   106.0752     8.3008     0.0322   100.2550     0.3123     0.1376     2.4517    18.7277     7.3272     8.9052
  145.5000   106.2198     8.3008     0.0231   102.6531     0.3090     0.1388     2.4509    18.6109     7.2737     8.9128
