~VERSION INFORMATION
 VERS.                2.0:   CWLS LOG ASCII STANDARD - VERSION 2.0
 WRAP.                 NO:   ONE LINE PER DEPTH STEP
~WELL INFORMATION
#MNEM.UNIT      DATA TYPE    INFORMATION
#----------   ------------   ------------------------------
 STRT.F           12.0000:   START DEPTH
 STOP.F          449.0000:   STOP DEPTH
 STEP.F            0.5000:   STEP LENGTH
 NULL.          -999.2500:   NO VALUE
 COMP. LAWRENCE-ALLISON &AS:   COMPANY
 WELL. NPR 3 #58-66SX3LI1:   WELL
 FLD .            WALDCAT:   FIELD
 LOC .       S3 T38N R78W:   LOCATION
 CNTY.            NATRONA:   COUNTY
 STAT.            WYOMING:   STATE
 CTRY. UNITED STATES OF AMERICA:   COUNTRY
 SRVC.      Dresser Atlas:   SERVICE COMPANY
 DATE.        11-JAN-1985:   LOGDATE
 API .       490251100100:   API NUMBER
~CURVE INFORMATION
#MNEM.UNIT       API CODE    CURVE DESCRIPTION
#----------   ------------   ------------------------------
 DEPT.F                  :   
 DT  .US/F   60 520 00 00:   INTERVAL TRANSIT TIME
 CALD.IN     45 280 60 00:   CALIPER FROM DENSITY LOG
 CORR.G/C3   45 356 01 00:   DENSITY CORRECTION
 GRD .GAPI   45 310 01 00:   GAMMA RAY FROM DENSITY LOG
 NPHI.DEC    42 890 03 00:   NEUTRON POROSITY SANDSTONE
 DPHI.DEC    45 890 12 00:   DENSITY POROSITY SANDSTONE
 RHOB.G/C3   45 350 01 00:   BULK DENSITY
 RD  .OHMM   11 220 10 00:   RESISTIVITY DEEP
 RMLL.OHMM   11 270 04 00:   MICRO LATEROLOG
 RS  .OHMM   11 220 09 00:   RESISTIVITY SHALLOW
~PARAMETER INFORMATION
#MNEM.UNIT          VALUE    DESCRIPTION
#----------   ------------   ------------------------------
 PD  .                 GL:   PERMANENT DATUM
 EPD .F              5184:   ELEVATION PERMANENT DATUM
 LMF .                 GL:   LOG MEASURED FROM
 DMF .                 GL:   DRILLING MEASURED FROM
 EGL .F              5184:   GROUND LEVEL
 DATE.        11-JAN-1985:   RUN DATE
 RUN .                  1:   RUN NUMBER
 DD  .F               451:   DEPTH DRILLER
 DL  .F               451:   DEPTH LOGGER
 BLI .F               442:   BOTTOM LOG INTERVAL
 TLI .F                20:   TOP LOG INTERVAL
 CS  .IN            8.625:   CASING SIZE
 CBD .F                20:   CASING BOTTOM DRILLER
 CBL .F                20:   CASING BOTTOM LOGGER
 BS  .IN            7.875:   BIT SIZE
 BSD .F               451:   BIT SIZE AT DEPTH
 DFT .          WATER-KCL:   DRILLING FLUID TYPE
 MSS .           MUD TANK:   MUD SAMPLE SOURCE
 RMS .OHMM           0.14:   RESISTIVITY MUD SAMPLE
 MST .F                90:   MUD SAMPLE TEMPERATURE
 RMF .OHMM           0.10:   RESISTIVITY MUD FILTRATE SAMPLE
 MFST.F                90:   MUD FILTRATE SAMPLE TEMPERATURE
 RMC .OHMM           0.17:   RESISTIVITY MUD CAKE
 MCST.F                90:   MUD CAKE SAMPLE TEMPERATURE
 MFSS.               CALC:   MUD FILTRATE SAMPLE SOURCE
 MCSS.               CALC:   MUD CAKE SAMPLE SOURCE
 TCS .HRS               7:   TIME CURCULATED STOPPED
 MRT .F               100:   MAXIMUM RECORDED TEMPERATURE
 LUN .               6270:   LOGGING UNIT NUMBER
 LUL .                 FM:   LOGGING UNIT LOCATION
 ENGI.          E. GOVETT:   RECORDING ENGINEER
 WITN.         MR. GROOMS:   WITNESSED BY
 CLNT.            A2DTECH:   CLIENT CODE
 ORIG.           5" PRINT:   ORIGIN OF DATA
 UWI .       490251100100:   UNIQUE WELL ID
 DICO. A2D Technologies, Inc.:   DIGITIZING COMPANY
~OTHER INFORMATION
~A   DEPT       DT       CALD       CORR        GRD         NPHI     DPHI       RHOB         RD       RMLL         RS   
# ...
  414.0000    95.8305     8.0174     0.0441   104.1586     0.2779     0.1303     2.4544    10.7085     9.5965     9.7681
  414.5000    96.0495     8.0170     0.0470   103.4044     0.2937     0.1334     2.4513    10.1178     9.1582     9.3788
  415.0000    96.9452     8.0165     0.0440   104.6021     0.3178     0.1370     2.4460     8.9591     8.4342     8.8141
  415.5000    99.4199     7.9860     0.0362   108.0512     0.3299     0.1397     2.4407     7.8058     7.6077     8.1671
  416.0000   101.8193     7.9547     0.0288   109.8496     0.3160     0.1434     2.4346     6.8959     6.7210     7.2307
  416.5000   102.7992     7.8647     0.0242   107.7440     0.3073     0.1458     2.4363     6.5746     6.0206     6.7065
  417.0000   100.4528     7.8042     0.0211    99.7817     0.2894     0.1437     2.4511     6.5332     5.5446     6.6644
  417.5000    98.1155     7.7887     0.0256    99.9284     0.2740     0.1377     2.4617     7.7232     5.4717     7.1487
  418.0000    94.8006     7.8033     0.0316   101.5766     0.2622     0.1286     2.4646     9.5220     6.9071     8.1590
  418.5000    92.9896     7.8330     0.0316   102.3239     0.2651     0.1259     2.4676    10.9614    10.5100     9.2479
  419.0000    92.8327     7.8762     0.0239   101.5688     0.2679     0.1256     2.4691    11.5745    10.8863    10.1962
  419.5000    93.0517     7.9089     0.0194   102.6164     0.2743     0.1257     2.4683    11.6644    10.3091    10.4907
  420.0000    93.5714     7.9258     0.0193   104.4147     0.2776     0.1278     2.4653    11.7549    10.0331    10.5720
  420.5000    93.7177     7.9514     0.0284   102.6086     0.2695     0.1281     2.4622    11.7644     9.9024    10.7280
  421.0000    94.0871     7.9509     0.0344    98.7012     0.2604     0.1269     2.4644    11.7739     9.9115    10.8199
  421.5000    94.4577     7.9505     0.0388    97.6467     0.2544     0.1270     2.4652    11.9478     9.9878    11.0490
  422.0000    94.7482     7.9501     0.0448   100.3451     0.2517     0.1294     2.4644    12.0452    10.0713    11.1347
  422.5000    94.8921     7.9414     0.0538   103.4947     0.2526     0.1330     2.4613    12.3060    10.2854    11.2989
  423.0000    94.7199     7.9251     0.0598   103.6414     0.2544     0.1360     2.4537    12.4878    10.3645    11.4655
  423.5000    94.4101     7.9186     0.0643   103.4870     0.2640     0.1397     2.4446    12.7604    10.2295    11.7154
  424.0000    94.0351     7.9332     0.0575   104.6847     0.2647     0.1427     2.4400    12.9489    10.0944    11.8882
  424.5000    93.6626     7.9478     0.0310   104.3801     0.2610     0.1418     2.4475    13.2316    10.3158    12.2315
  425.0000    93.3553     7.9473     0.0204   102.2745     0.2628     0.1372     2.4528    13.5205    10.9115    12.4980
  425.5000    93.0479     7.9469     0.0098   101.8206     0.2695     0.1337     2.4565    13.8156    11.5416    12.7703
  426.0000    92.6641     7.9465     0.0037   103.7682     0.2728     0.1298     2.4633    14.1267    11.7928    13.1404
  426.5000    92.2816     7.9460     0.0127   107.0680     0.2764     0.1259     2.4701    14.5287    11.8035    13.3427
  427.0000    91.8239     7.9455     0.0308   109.1667     0.2779     0.1229     2.4769    14.8459    11.9770    13.7207
  427.5000    91.5166     7.9450     0.0465   106.4596     0.2782     0.1177     2.4858    15.1700    12.3225    14.0197
  428.0000    91.0590     7.9447     0.0564   100.6003     0.2725     0.1138     2.4911    15.2878    12.6780    14.1284
  428.5000    90.7516     7.9592     0.0563    96.8431     0.2628     0.1114     2.4941    15.7302    12.8643    14.4363
  429.0000    90.3691     7.9588     0.0563    93.9859     0.2556     0.1108     2.4948    15.9626    12.7826    14.5483
  429.5000    90.2122     7.9733     0.0547    92.9314     0.2483     0.1142     2.4895    16.1988    13.0630    14.7628
  430.0000    90.1305     7.9729     0.0547    92.9279     0.2435     0.1227     2.4743    16.4534    13.4525    14.7748
  430.5000    90.2008     7.9725     0.0561  -999.2500     0.2445     0.1245     2.4745    16.5687    13.7346    14.7868
  431.0000    90.2694     7.9871     0.0606  -999.2500     0.2477     0.1196     2.4818    16.3538    13.4597    14.7988
  431.5000    90.5620     7.9969     0.0666  -999.2500     0.2489     0.1170     2.4833    16.1417    12.9238    14.6074
  432.0000    90.8578     8.0013     0.0726  -999.2500     0.2459     0.1170     2.4817    16.0399    12.5777    14.7210
  432.5000    91.0016     8.0008     0.0694  -999.2500     0.2373     0.1218     2.4764    16.0561    12.7649    14.7356
  433.0000    90.9934     8.0003     0.0529  -999.2500     0.2278     0.1267     2.4718    16.0687    13.1331    14.8477
  433.5000    90.8365     7.9998     0.0393  -999.2500     0.2242     0.1291     2.4665  -999.2500    13.4188  -999.2500
  434.0000    90.6044     7.9994     0.0241  -999.2500     0.2193     0.1297     2.4619  -999.2500    13.4288  -999.2500
  434.5000    90.5978     8.0140     0.0150  -999.2500     0.2142     0.1297     2.4619  -999.2500    13.4411  -999.2500
  435.0000    90.8169     8.0135     0.0104  -999.2500     0.1978     0.1298     2.4619  -999.2500    13.4510  -999.2500
  435.5000    90.9607     8.0130     0.0240  -999.2500  -999.2500     0.1304     2.4618  -999.2500    13.3681  -999.2500
  436.0000    90.9541     8.0126     0.0394  -999.2500  -999.2500     0.1316     2.4588  -999.2500    12.9227  -999.2500
  436.5000    90.7972     8.0122     0.0481  -999.2500  -999.2500     0.1325     2.4572  -999.2500    12.6640  -999.2500
  437.0000    90.1891     8.0117     0.0495  -999.2500  -999.2500     0.1322     2.4572  -999.2500    12.6757  -999.2500
  437.5000    89.8818     7.9962     0.0510  -999.2500  -999.2500     0.1298     2.4632  -999.2500    12.8620  -999.2500
  438.0000    89.8753     7.9958     0.0540  -999.2500  -999.2500     0.1271     2.4662  -999.2500    13.2405  -999.2500
  438.5000    90.2447     7.9953     0.0554  -999.2500  -999.2500     0.1268     2.4661  -999.2500    13.6462  -999.2500
  439.0000    90.5389     7.9948     0.0556  -999.2500  -999.2500     0.1281     2.4638  -999.2500    13.7195  -999.2500
  439.5000    90.7595     7.9944     0.0296  -999.2500  -999.2500     0.1284     2.4630  -999.2500    13.5408  -999.2500
  440.0000    91.2776     7.9940     0.0175  -999.2500  -999.2500     0.1272     2.4660  -999.2500    13.4573  -999.2500
  440.5000    91.7974     7.9935     0.0205  -999.2500  -999.2500     0.1248     2.4705  -999.2500    13.2844  -999.2500
  441.0000    92.2420     8.0082     0.0403  -999.2500  -999.2500     0.1215     2.4750  -999.2500    13.2001  -999.2500
  441.5000    92.7618     8.0077     0.0446  -999.2500  -999.2500     0.1203     2.4765  -999.2500    12.8513  -999.2500
  442.0000    93.1115     8.0071     0.0294  -999.2500  -999.2500     0.1191     2.4787  -999.2500    12.5964  -999.2500
  442.5000  -999.2500     8.0068     0.0292  -999.2500  -999.2500     0.1179     2.4824  -999.2500    12.5187  -999.2500
  443.0000  -999.2500     8.0063     0.0505  -999.2500  -999.2500     0.1173     2.4839  -999.2500    12.2704  -999.2500
  443.5000  -999.2500     8.0059     0.0625  -999.2500  -999.2500     0.1185     2.4839  -999.2500    11.9462  -999.2500
  444.0000  -999.2500     8.0054     0.0443  -999.2500  -999.2500     0.1217     2.4761  -999.2500    11.8703  -999.2500
  444.5000  -999.2500     8.0050     0.0540  -999.2500  -999.2500     0.1234     2.4694  -999.2500    11.7179  -999.2500
  445.0000  -999.2500     8.0044     0.0714  -999.2500  -999.2500     0.1228     2.4747  -999.2500    11.5652  -999.2500
  445.5000  -999.2500     7.9890     0.0805  -999.2500  -999.2500     0.1246     2.4739  -999.2500    11.3358  -999.2500
  446.0000  -999.2500     7.9735     0.0895  -999.2500  -999.2500     0.1304     2.4610  -999.2500    11.2649  -999.2500
  446.5000  -999.2500     7.9580     0.0955  -999.2500  -999.2500     0.1355     2.4534  -999.2500    11.1964  -999.2500
  447.0000  -999.2500     7.9425     0.0682  -999.2500  -999.2500     0.1383     2.4458  -999.2500    11.1274  -999.2500
