~VERSION INFORMATION
 VERS.                2.0:   CWLS LOG ASCII STANDARD - VERSION 2.0
 WRAP.                 NO:   ONE LINE PER DEPTH STEP
~WELL INFORMATION
#MNEM.UNIT      DATA TYPE    INFORMATION
#----------   ------------   ------------------------------
 STRT.F           12.0000:   START DEPTH
 STOP.F          449.0000:   STOP DEPTH
 STEP.F            0.5000:   STEP LENGTH
 NULL.          -999.2500:   NO VALUE
 COMP. LAWRENCE-ALLISON &AS:   COMPANY
 WELL. NPR 3 #58-66SX3LI1:   WELL
 FLD .            WALDCAT:   FIELD
 LOC .       S3 T38N R78W:   LOCATION
 CNTY.            NATRONA:   COUNTY
 STAT.            WYOMING:   STATE
 CTRY. UNITED STATES OF AMERICA:   COUNTRY
 SRVC.      Dresser Atlas:   SERVICE COMPANY
 DATE.        11-JAN-1985:   LOGDATE
 API .       490251100100:   API NUMBER
~CURVE INFORMATION
#MNEM.UNIT       API CODE    CURVE DESCRIPTION
#----------   ------------   ------------------------------
 DEPT.F                  :   
 DT  .US/F   60 520 00 00:   INTERVAL TRANSIT TIME
 CALD.IN     45 280 60 00:   CALIPER FROM DENSITY LOG
 CORR.G/C3   45 356 01 00:   DENSITY CORRECTION
 GRD .GAPI   45 310 01 00:   GAMMA RAY FROM DENSITY LOG
 NPHI.DEC    42 890 03 00:   NEUTRON POROSITY SANDSTONE
 DPHI.DEC    45 890 12 00:   DENSITY POROSITY SANDSTONE
 RHOB.G/C3   45 350 01 00:   BULK DENSITY
 RD  .OHMM   11 220 10 00:   RESISTIVITY DEEP
 RMLL.OHMM   11 270 04 00:   MICRO LATEROLOG
 RS  .OHMM   11 220 09 00:   RESISTIVITY SHALLOW
~PARAMETER INFORMATION
#MNEM.UNIT          VALUE    DESCRIPTION
#----------   ------------   ------------------------------
 PD  .                 GL:   PERMANENT DATUM
 EPD .F              5184:   ELEVATION PERMANENT DATUM
 LMF .                 GL:   LOG MEASURED FROM
 DMF .                 GL:   DRILLING MEASURED FROM
 EGL .F              5184:   GROUND LEVEL
 DATE.        11-JAN-1985:   RUN DATE
 RUN .                  1:   RUN NUMBER
 DD  .F               451:   DEPTH DRILLER
 DL  .F               451:   DEPTH LOGGER
 BLI .F               442:   BOTTOM LOG INTERVAL
 TLI .F                20:   TOP LOG INTERVAL
 CS  .IN            8.625:   CASING SIZE
 CBD .F                20:   CASING BOTTOM DRILLER
 CBL .F                20:   CASING BOTTOM LOGGER
 BS  .IN            7.875:   BIT SIZE
 BSD .F               451:   BIT SIZE AT DEPTH
 DFT .          WATER-KCL:   DRILLING FLUID TYPE
 MSS .           MUD TANK:   MUD SAMPLE SOURCE
 RMS .OHMM           0.14:   RESISTIVITY MUD SAMPLE
 MST .F                90:   MUD SAMPLE TEMPERATURE
 RMF .OHMM           0.10:   RESISTIVITY MUD FILTRATE SAMPLE
 MFST.F                90:   MUD FILTRATE SAMPLE TEMPERATURE
 RMC .OHMM           0.17:   RESISTIVITY MUD CAKE
 MCST.F                90:   MUD CAKE SAMPLE TEMPERATURE
 MFSS.               CALC:   MUD FILTRATE SAMPLE SOURCE
 MCSS.               CALC:   MUD CAKE SAMPLE SOURCE
 TCS .HRS               7:   TIME CURCULATED STOPPED
 MRT .F               100:   MAXIMUM RECORDED TEMPERATURE
 LUN .               6270:   LOGGING UNIT NUMBER
 LUL .                 FM:   LOGGING UNIT LOCATION
 ENGI.          E. GOVETT:   RECORDING ENGINEER
 WITN.         MR. GROOMS:   WITNESSED BY
 CLNT.            A2DTECH:   CLIENT CODE
 ORIG.           5" PRINT:   ORIGIN OF DATA
 UWI .       490251100100:   UNIQUE WELL ID
 DICO. A2D Technologies, Inc.:   DIGITIZING COMPANY
~OTHER INFORMATION
~A   DEPT       DT       CALD       CORR        GRD         NPHI     DPHI       RHOB         RD       RMLL         RS   
# ...
  179.5000   126.7570     8.2556     0.0239   102.5726     0.3244     0.2259     2.2940     6.3485     2.0835     3.4275
  180.0000   124.0450     8.2707     0.0299   108.4685     0.3183     0.2208     2.3038     6.6225     2.5273     3.6249
  180.5000   121.3331     8.2707     0.0359   110.7207     0.3096     0.2088     2.3015     6.9565     3.1994     3.8605
  181.0000   117.8481     8.2807     0.0132   111.1912     0.3087     0.1835     2.3090     7.7775     3.0085     4.0314
  181.5000   114.7289     8.2857     0.0056   110.5506     0.3175     0.1554     2.3400     9.6480     2.8685     4.3727
  182.0000   111.9619     8.2857     0.0121   109.8198     0.3238     0.1400     2.4102    12.3048     4.8259     6.1062
  182.5000   110.9248     8.2857     0.0358   109.8198     0.3232     0.1382     2.4283    13.6621     6.5503     7.2634
  183.0000   111.2305     8.2707     0.0327   112.6727     0.3118     0.1397     2.4439    14.0557     6.9290     7.5240
  183.5000   111.8281     8.2644     0.0267   116.2763     0.3009     0.1451     2.4456    13.8716     6.9829     7.3746
  184.0000   111.9733     8.2388     0.0206   116.7267     0.2952     0.1448     2.4403    13.6900     6.7976     7.0797
  184.5000   111.5157     8.2218     0.0191   115.8258     0.2958     0.1439     2.4373    13.5108     6.5717     6.9378
  185.0000   110.9090     8.1955     0.0205   116.7267     0.2834     0.1412     2.4372    13.4266     6.3972     7.0893
  185.5000   110.3022     8.1805     0.0252   118.8288     0.2762     0.1382     2.4388    13.6339     6.4470     7.3436
  186.0000   110.0715     8.1654     0.0326   120.4805     0.2792     0.1376     2.4425    14.2137     6.5879     7.5027
  186.5000   110.4422     8.1654     0.0416   121.6817     0.3085     0.1397     2.4477    14.5222     6.7399     7.7183
  187.0000   111.7904     8.1654     0.0310   122.2823     0.3230     0.1503     2.4492    14.5321     6.9276     7.8311
  187.5000   114.1160     8.1805     0.0234   121.9820     0.3282     0.1690     2.4416    13.9497     6.9815     7.5052
  188.0000   116.1409     8.1855     0.0113   122.4324     0.3267     0.1820     2.4265    12.4078     6.9871     6.9569
  188.5000   117.4890     8.1955     0.0022   123.9339     0.3288     0.1853     2.4038    11.1130     6.2162     6.4223
  189.0000   117.7107     8.1955     0.0055   124.8348     0.3306     0.1780     2.3729    10.3043     5.2323     6.0808
  189.5000   117.0275     8.1955     0.0188   118.5285     0.3306     0.1759     2.3675    10.1677     4.6229     5.8782
  190.0000   116.1200     8.2045     0.0187   117.6276     0.3303     0.1711     2.3736    10.1763     4.6588     5.8004
  190.5000   115.1374     8.2105     0.0232   116.7267     0.3237     0.1642     2.3826    10.4695     4.8604     5.8456
  191.0000   114.4555     8.2105     0.0307   115.5255     0.3171     0.1578     2.3941    10.8460     4.8981     6.0136
  191.5000   113.6232     8.2061     0.0322   114.9249     0.3113     0.1505     2.4052    11.3953     4.8683     6.2294
  192.0000   112.7909     8.1955     0.0322   116.7267     0.3002     0.1451     2.4150    11.9026     4.9878     6.4529
  192.5000   111.7268     8.1751     0.0305   119.1291     0.2926     0.1406     2.4263    12.5163     5.9364     6.7775
  193.0000   110.2812     8.1654     0.0261   118.6787     0.2905     0.1361     2.4354    13.3912     6.3068     7.1185
  193.5000   108.8343     8.1353     0.0170   117.6276     0.2911     0.1340     2.4399    14.2627     6.0971     7.4254
  194.0000   107.4406     8.1303     0.0109   118.0781     0.2927     0.1346     2.4504    15.1910     6.1872     7.7536
  194.5000   106.2985     8.1053     0.0185   117.9079     0.2948     0.1364     2.4542    16.0679     6.9178     8.0962
  195.0000   106.2170     8.0951     0.0139   117.3273     0.2942     0.1388     2.4481    16.5308     7.5233     8.5451
  195.5000   106.2870     8.0902     0.0078   118.0781     0.2995     0.1397     2.4443    17.0070     8.0137     8.9750
  196.0000   106.5826     8.0860     0.0079   118.3784     0.3057     0.1382     2.4458    17.0186     8.2455     9.2970
  196.5000   106.9533     8.0752     0.0198   117.2673     0.3120     0.1340     2.4527    17.0301     8.3673     9.4313
  197.0000   107.3240     8.0752     0.0395   116.1261     0.3182     0.1309     2.4593    16.9237     8.3741     9.1818
  197.5000   107.7700     8.0752     0.0545   116.2763     0.3245     0.1303     2.4608    16.7024     8.3809     8.9994
  198.0000   108.2911     8.0752     0.0651   118.5285     0.3307     0.1297     2.4601    16.3699     8.2153     8.8818
  198.5000   108.8122     8.0902     0.0711   117.4775     0.3380     0.1309     2.4563    16.0328     7.9924     8.7643
  199.0000   109.4085     8.0902     0.0711   115.5255     0.3199     0.1322     2.4547    15.5970     7.6601     8.5916
  199.5000   110.0048     8.0902     0.0588   114.3243     0.3027     0.1325     2.4570    15.0969     7.3223     8.5381
  200.0000   110.4930     8.0751     0.0435   116.5763     0.3145     0.1306     2.4607    14.6941     7.0788     8.3686
  200.5000   110.7420     8.0747     0.0272   116.5735     0.3181     0.1289     2.4615    14.3991     6.9857     8.3123
  201.0000   111.1165     8.0743     0.0241   115.9299     0.3194     0.1280     2.4615    14.0174     6.9432     8.1513
  201.5000   111.4872     8.0749     0.0271   115.6662     0.3188     0.1292     2.4600    13.7359     6.9502     8.0448
  202.0000   111.7840     8.0885     0.0467   116.1138     0.3179     0.1340     2.4547    13.3718     7.0042     7.9857
  202.5000   112.0030     8.1031     0.0633   117.3122     0.3194     0.1449     2.4282    13.0150     6.9602     7.8431
  203.0000   113.0504     8.1025     0.0583   117.4595     0.3381     0.1610     2.4131    12.4934     6.8226     7.2746
  203.5000   115.3008     8.1322     0.0466   117.3058     0.3532     0.1722     2.3927    11.3459     6.5971     6.6546
  204.0000   118.0776     8.1317     0.0436   120.9066     0.3557     0.1849     2.3686    10.0221     6.3778     6.0456
  204.5000   119.2002     8.1463     0.0390   124.3572     0.3252     0.1969     2.3459     8.8471     5.9473     5.4544
  205.0000   118.4430     8.1458     0.0327   123.6036     0.3089     0.1969     2.3497     8.0287     5.0729     5.0941
  205.5000   115.5807     8.1605     0.0208   117.5940     0.2971     0.1710     2.3716     7.8796     3.9110     5.3512
  206.0000   112.3423     8.1600     0.0163   115.6393     0.2898     0.1475     2.4215     9.4433     3.4316     6.1074
  206.5000   109.0289     8.1595     0.0192   115.0358     0.3004     0.1406     2.4398    11.7960     3.7320     6.9226
  207.0000   107.8958     8.1591     0.0318   115.6336     0.3122     0.1391     2.4464    12.9246     5.2440     7.7388
  207.5000   107.6650     8.1586     0.0509   117.7321     0.3165     0.1376     2.4486    14.1597     7.1179     8.4152
  208.0000   107.8853     8.1581     0.0630   117.8802     0.3122     0.1361     2.4502    14.5687     7.8489     8.7788
  208.5000   108.4816     8.1577     0.0660   117.4262     0.2996     0.1340     2.4525    14.3789     8.1320     8.7860
  209.0000   109.0027     8.1573     0.0674   117.7237     0.2947     0.1313     2.4592    14.1890     8.1936     8.7933
  209.5000   109.1491     8.1417     0.0614   118.4865     0.2932     0.1271     2.4637    14.3011     7.8138     8.8006
  210.0000   108.6163     8.1263     0.0492   116.8163     0.3089     0.1235     2.4705    14.5116     7.3987     8.9320
  210.5000   108.0847     8.1258     0.0462   115.0117     0.3105     0.1211     2.4759    14.7252     7.2024     9.0014
  211.0000   108.0043     8.1254     0.0431   116.9608     0.3019     0.1187     2.4796    15.0458     7.5290     9.0712
  211.5000   107.9991     8.1250     0.0325   118.7698     0.2899     0.1172     2.4804    15.2673     8.1256     9.0787
  212.0000   107.9938     8.1245     0.0204   119.8073     0.2770     0.1164     2.4811    15.4920     8.4100     9.1491
  212.5000   107.9886     8.1240     0.0189   119.9553     0.2733     0.1164     2.4834    15.6115     8.4753     9.1566
