~VERSION INFORMATION
 VERS.                2.0:   CWLS LOG ASCII STANDARD - VERSION 2.0
 WRAP.                 NO:   ONE LINE PER DEPTH STEP
~WELL INFORMATION
#MNEM.UNIT      DATA TYPE    INFORMATION
#----------   ------------   ------------------------------
 STRT.F           12.0000:   START DEPTH
 STOP.F          449.0000:   STOP DEPTH
 STEP.F            0.5000:   STEP LENGTH
 NULL.          -999.2500:   NO VALUE
 COMP. LAWRENCE-ALLISON &AS:   COMPANY
 WELL. NPR 3 #58-66SX3LI1:   WELL
 FLD .            WALDCAT:   FIELD
 LOC .       S3 T38N R78W:   LOCATION
 CNTY.            NATRONA:   COUNTY
 STAT.            WYOMING:   STATE
 CTRY. UNITED STATES OF AMERICA:   COUNTRY
 SRVC.      Dresser Atlas:   SERVICE COMPANY
 DATE.        11-JAN-1985:   LOGDATE
 API .       490251100100:   API NUMBER
~CURVE INFORMATION
#MNEM.UNIT       API CODE    CURVE DESCRIPTION
#----------   ------------   ------------------------------
 DEPT.F                  :   
 DT  .US/F   60 520 00 00:   INTERVAL TRANSIT TIME
 CALD.IN     45 280 60 00:   CALIPER FROM DENSITY LOG
 CORR.G/C3   45 356 01 00:   DENSITY CORRECTION
 GRD .GAPI   45 310 01 00:   GAMMA RAY FROM DENSITY LOG
 NPHI.DEC    42 890 03 00:   NEUTRON POROSITY SANDSTONE
 DPHI.DEC    45 890 12 00:   DENSITY POROSITY SANDSTONE
 RHOB.G/C3   45 350 01 00:   BULK DENSITY
 RD  .OHMM   11 220 10 00:   RESISTIVITY DEEP
 RMLL.OHMM   11 270 04 00:   MICRO LATEROLOG
 RS  .OHMM   11 220 09 00:   RESISTIVITY SHALLOW
~PARAMETER INFORMATION
#MNEM.UNIT          VALUE    DESCRIPTION
#----------   ------------   ------------------------------
 PD  .                 GL:   PERMANENT DATUM
 EPD .F              5184:   ELEVATION PERMANENT DATUM
 LMF .                 GL:   LOG MEASURED FROM
 DMF .                 GL:   DRILLING MEASURED FROM
 EGL .F              5184:   GROUND LEVEL
 DATE.        11-JAN-1985:   RUN DATE
 RUN .                  1:   RUN NUMBER
 DD  .F               451:   DEPTH DRILLER
 DL  .F               451:   DEPTH LOGGER
 BLI .F               442:   BOTTOM LOG INTERVAL
 TLI .F                20:   TOP LOG INTERVAL
 CS  .IN            8.625:   CASING SIZE
 CBD .F                20:   CASING BOTTOM DRILLER
 CBL .F                20:   CASING BOTTOM LOGGER
 BS  .IN            7.875:   BIT SIZE
 BSD .F               451:   BIT SIZE AT DEPTH
 DFT .          WATER-KCL:   DRILLING FLUID TYPE
 MSS .           MUD TANK:   MUD SAMPLE SOURCE
 RMS .OHMM           0.14:   RESISTIVITY MUD SAMPLE
 MST .F                90:   MUD SAMPLE TEMPERATURE
 RMF .OHMM           0.10:   RESISTIVITY MUD FILTRATE SAMPLE
 MFST.F                90:   MUD FILTRATE SAMPLE TEMPERATURE
 RMC .OHMM           0.17:   RESISTIVITY MUD CAKE
 MCST.F                90:   MUD CAKE SAMPLE TEMPERATURE
 MFSS.               CALC:   MUD FILTRATE SAMPLE SOURCE
 MCSS.               CALC:   MUD CAKE SAMPLE SOURCE
 TCS .HRS               7:   TIME CURCULATED STOPPED
 MRT .F               100:   MAXIMUM RECORDED TEMPERATURE
 LUN .               6270:   LOGGING UNIT NUMBER
 LUL .                 FM:   LOGGING UNIT LOCATION
 ENGI.          E. GOVETT:   RECORDING ENGINEER
 WITN.         MR. GROOMS:   WITNESSED BY
 CLNT.            A2DTECH:   CLIENT CODE
 ORIG.           5" PRINT:   ORIGIN OF DATA
 UWI .       490251100100:   UNIQUE WELL ID
 DICO. A2D Technologies, Inc.:   DIGITIZING COMPANY
~OTHER INFORMATION
~A   DEPT       DT       CALD       CORR        GRD         NPHI     DPHI       RHOB         RD       RMLL         RS   
   12.0000  -999.2500  -999.2500  -999.2500  -999.2500     0.0186  -999.2500  -999.2500  -999.2500  -999.2500  -999.2500
   12.5000  -999.2500  -999.2500  -999.2500    83.2808     0.0168  -999.2500  -999.2500  -999.2500  -999.2500  -999.2500
   13.0000  -999.2500  -999.2500  -999.2500    77.0084     0.0223  -999.2500  -999.2500  -999.2500  -999.2500  -999.2500
   13.5000  -999.2500  -999.2500  -999.2500    74.1527     0.0368  -999.2500  -999.2500  -999.2500  -999.2500  -999.2500
   14.0000  -999.2500  -999.2500  -999.2500    71.7475     0.1839  -999.2500  -999.2500  -999.2500  -999.2500  -999.2500
   14.5000  -999.2500  -999.2500  -999.2500    69.6425     0.2757  -999.2500  -999.2500  -999.2500  -999.2500  -999.2500
   15.0000  -999.2500  -999.2500  -999.2500    68.2883     0.4758  -999.2500  -999.2500  -999.2500  -999.2500  -999.2500
   15.5000  -999.2500  -999.2500  -999.2500    68.5851     0.4773  -999.2500  -999.2500  -999.2500  -999.2500  -999.2500
   16.0000  -999.2500  -999.2500  -999.2500    69.3330     0.4701  -999.2500  -999.2500  -999.2500  -999.2500  -999.2500
   16.5000  -999.2500  -999.2500  -999.2500    70.9818     0.4752  -999.2500  -999.2500  -999.2500  -999.2500  -999.2500
   17.0000  -999.2500  -999.2500  -999.2500    72.0441     0.4776  -999.2500  -999.2500  -999.2500  -999.2500  -999.2500
   17.5000  -999.2500  -999.2500  -999.2500    72.6271     0.4662  -999.2500  -999.2500  -999.2500  -999.2500  -999.2500
   18.0000  -999.2500  -999.2500  -999.2500    72.7744     0.4296  -999.2500  -999.2500  -999.2500  -999.2500  -999.2500
   18.5000  -999.2500  -999.2500  -999.2500    73.2221     0.3973  -999.2500  -999.2500  -999.2500  -999.2500  -999.2500
   19.0000  -999.2500  -999.2500  -999.2500    74.4204     0.3611  -999.2500  -999.2500  -999.2500  -999.2500  -999.2500
   19.5000  -999.2500  -999.2500  -999.2500    78.9214     0.3417  -999.2500  -999.2500  -999.2500  -999.2500  -999.2500
   20.0000   136.5224     8.4862    -0.5665    85.5251     0.3112     0.3000     2.0000    29.3814     0.3181     4.5855
   20.5000   113.2458     8.5741     0.0363    93.6304     0.2997     0.1333     2.3482    28.5999     0.3946     3.7035
   21.0000   115.6617     8.6040     0.0604   100.0840     0.2959     0.1291     2.4607    33.8678     0.5941     3.2950
   21.5000   116.2420     8.6036     0.0680   101.4318     0.2934     0.1334     2.4606    45.2643     0.9925     3.3201
   22.0000   118.6441     8.6184     0.0665   102.0303     0.2938     0.1331     2.4569    48.8871     3.1089     4.3958
   22.5000   119.8273     8.6180     0.0514   103.2280     0.2995     0.1334     2.4569    48.9244    12.1472     6.1275
   23.0000   119.5141     8.6177     0.0378   105.1771     0.2986     0.1431     2.4538    49.3022    12.7208     7.6290
   23.5000   118.9811     8.6325     0.0272   107.1446     0.2914     0.1507     2.4402    49.3399    12.6421     8.1807
   24.0000   118.7528     8.6322     0.0227   107.8734     0.2799     0.1516     2.4297    49.7209    12.5639     8.4159
   24.5000   118.7453     8.6319     0.0242   104.4171     0.2798     0.1504     2.4266    50.1048    12.3977     8.4867
   25.0000   118.7378     8.6315     0.0347   101.2611     0.2938     0.1495     2.4311    50.8429    12.4089     8.5094
   25.5000   118.8086     8.6313     0.0529   102.0931     0.2999     0.1501     2.4303    51.5919    13.2164     8.5320
   26.0000   119.0234     8.6310     0.0619   106.8103     0.2935     0.1523     2.4265    52.0182    13.7870     8.5547
   26.5000   118.9381     8.6457     0.0650   108.4591     0.2938     0.1535     2.4235    52.7578    13.0534     8.5774
   27.0000   118.7077     8.6605     0.0574   106.5043     0.2941     0.1502     2.4265    53.5832    12.7057     8.6000
   27.5000   118.7002     8.6903     0.0529   103.7863     0.2932     0.1463     2.4356    54.7100    12.8924     8.6227
   28.0000   118.6927     8.7200     0.0468    97.4890     0.2954     0.1451     2.4370    55.9020    13.1819     8.6453
   28.5000   118.6852     8.7196     0.0166    95.6843     0.2996     0.1454     2.4370    57.1200    13.5547     8.6680
   29.0000   118.6777     8.6592     0.0106   100.4863     0.3126     0.1464     2.4370    58.3645    13.9454     8.6906
   29.5000   118.6702     8.6138     0.0181   104.0871     0.3165     0.1494     2.4324    58.8152    14.1501     8.7133
   30.0000   118.6627     8.5684     0.0317   105.5850     0.3169     0.1530     2.4218    59.2694    14.2587     8.7231
   30.5000   118.6551     8.5515     0.0378   105.1317     0.3157     0.1609     2.4097    59.7271    14.0702     8.7302
   31.0000   119.4741     8.5528     0.0287   104.3782     0.3122     0.1612     2.4150    59.7727    13.9831     8.7361
   31.5000   119.9925     8.5525     0.0227   104.8258     0.3081     0.1598     2.4232    60.2350    13.7079     8.8027
   32.0000   120.0601     8.5371     0.0317   104.3063     0.3020     0.1468     2.4338    60.2819    13.6207     8.8697
   32.5000   120.0525     8.4910     0.0483   101.2158     0.2882     0.1396     2.4451    60.7573    13.3524     8.8757
   33.0000   120.0450     8.4312     0.0453   100.1619     0.2819     0.1357     2.4533    61.6523    13.2700     8.8817
   33.5000   120.5634     8.4159     0.0302   100.6095     0.2894     0.1333     2.4586    62.1284    13.3880     8.8877
   34.0000   121.1570     8.4156     0.0317   103.9700     0.3115     0.1336     2.4563    63.0436    14.1787     8.8938
   34.5000   120.9992     8.4003     0.0619   112.4650     0.3130     0.1351     2.4533    63.9723    14.9629     8.8384
   35.0000   120.8414     8.4151     0.0710   114.8646     0.2964     0.1345     2.4570    65.3661    15.6089     8.8445
   35.5000   120.3831     8.4147     0.0740   116.2131     0.2880     0.1314     2.4638    65.8708    15.1934     8.7897
   36.0000   120.0750     8.4144     0.0770   111.5135     0.2792     0.1234     2.4713    66.3795    14.1871     8.7968
   36.5000   119.9924     8.4141     0.0770   107.6481     0.2674     0.1310     2.4728    66.4302    13.8094     8.7744
   37.0000   120.2104     8.4138     0.0801   107.9456     0.2699     0.1382     2.4600    66.4814    13.8194     8.7466
   37.5000   120.8038     8.4135     0.0952   110.4953     0.2804     0.1503     2.4320    66.5333    13.4515     8.7540
   38.0000   120.9631     8.4132     0.1133   111.8458     0.2862     0.1507     2.4275    66.1225    11.8016     8.7593
   38.5000   120.3367     8.4129     0.0952   106.4349     0.2904     0.1465     2.4365    66.1855    11.3294     8.7654
   39.0000   118.9017     8.4120     0.0680   105.9816     0.3080     0.1426     2.4440    66.6967    11.4278     8.7715
   39.5000   119.9460     8.3822     0.0604   105.5283     0.3122     0.1390     2.4515    66.7476    12.0058     8.7777
   40.0000   124.4614     8.3820     0.0468   103.8738     0.2959     0.1333     2.4607    68.2018    11.3560     8.7836
   40.5000   132.7039     8.3754     0.0196   101.0174     0.2735     0.1284     2.4726    70.1724    10.3858     8.7897
   41.0000   136.7535     8.3663     0.0136   101.1647     0.2757     0.1245     2.4771    72.1999    10.8342     8.7958
   41.5000   137.8730     8.3660     0.0136   103.1139     0.2914     0.1221     2.4786    73.7729    12.0288     8.8029
   42.0000   137.9424     8.3807     0.0181   108.2161     0.2999     0.1219     2.4770    74.8596    12.7231     8.8079
   42.5000   126.4379     8.3805     0.0257   109.8824     0.3078     0.1234     2.4732    76.4911    12.8208     8.8148
   43.0000   119.6686     8.3802     0.0347   110.1624     0.3165     0.1258     2.4694    77.0831    12.8300     8.8208
   43.5000   117.0314     8.3949     0.0453   110.3097     0.3171     0.1283     2.4649    78.2317    12.8392     8.8880
   44.0000   116.4980     8.3971     0.0498   108.9548     0.3147     0.1304     2.4618    78.8359    12.8485     8.8327
   44.5000   116.4905     8.4093     0.0363   110.8203     0.3150     0.1334     2.4565    78.8960    12.7690     8.8387
   45.0000   116.8586     8.3992     0.0287   114.3539     0.3159     0.1377     2.4520    78.9562    12.6900     8.8447
