~VERSION INFORMATION
 VERS.                2.0:   CWLS LOG ASCII STANDARD - VERSION 2.0
 WRAP.                 NO:   ONE LINE PER DEPTH STEP
~WELL INFORMATION
#MNEM.UNIT      DATA TYPE    INFORMATION
#----------   ------------   ------------------------------
 STRT.F           12.0000:   START DEPTH
 STOP.F          449.0000:   STOP DEPTH
 STEP.F            0.5000:   STEP LENGTH
 NULL.          -999.2500:   NO VALUE
 COMP. LAWRENCE-ALLISON &AS:   COMPANY
 WELL. NPR 3 #58-66SX3LI1:   WELL
 FLD .            WALDCAT:   FIELD
 LOC .       S3 T38N R78W:   LOCATION
 CNTY.            NATRONA:   COUNTY
 STAT.            WYOMING:   STATE
 CTRY. UNITED STATES OF AMERICA:   COUNTRY
 SRVC.      Dresser Atlas:   SERVICE COMPANY
 DATE.        11-JAN-1985:   LOGDATE
 API .       490251100100:   API NUMBER
~CURVE INFORMATION
#MNEM.UNIT       API CODE    CURVE DESCRIPTION
#----------   ------------   ------------------------------
 DEPT.F                  :   
 DT  .US/F   60 520 00 00:   INTERVAL TRANSIT TIME
 CALD.IN     45 280 60 00:   CALIPER FROM DENSITY LOG
 CORR.G/C3   45 356 01 00:   DENSITY CORRECTION
 GRD .GAPI   45 310 01 00:   GAMMA RAY FROM DENSITY LOG
 NPHI.DEC    42 890 03 00:   NEUTRON POROSITY SANDSTONE
 DPHI.DEC    45 890 12 00:   DENSITY POROSITY SANDSTONE
 RHOB.G/C3   45 350 01 00:   BULK DENSITY
 RD  .OHMM   11 220 10 00:   RESISTIVITY DEEP
 RMLL.OHMM   11 270 04 00:   MICRO LATEROLOG
 RS  .OHMM   11 220 09 00:   RESISTIVITY SHALLOW
~PARAMETER INFORMATION
#MNEM.UNIT          VALUE    DESCRIPTION
#----------   ------------   ------------------------------
 PD  .                 GL:   PERMANENT DATUM
 EPD .F              5184:   ELEVATION PERMANENT DATUM
 LMF .                 GL:   LOG MEASURED FROM
 DMF .                 GL:   DRILLING MEASURED FROM
 EGL .F              5184:   GROUND LEVEL
 DATE.        11-JAN-1985:   RUN DATE
 RUN .                  1:   RUN NUMBER
 DD  .F               451:   DEPTH DRILLER
 DL  .F               451:   DEPTH LOGGER
 BLI .F               442:   BOTTOM LOG INTERVAL
 TLI .F                20:   TOP LOG INTERVAL
 CS  .IN            8.625:   CASING SIZE
 CBD .F                20:   CASING BOTTOM DRILLER
 CBL .F                20:   CASING BOTTOM LOGGER
 BS  .IN            7.875:   BIT SIZE
 BSD .F               451:   BIT SIZE AT DEPTH
 DFT .          WATER-KCL:   DRILLING FLUID TYPE
 MSS .           MUD TANK:   MUD SAMPLE SOURCE
 RMS .OHMM           0.14:   RESISTIVITY MUD SAMPLE
 MST .F                90:   MUD SAMPLE TEMPERATURE
 RMF .OHMM           0.10:   RESISTIVITY MUD FILTRATE SAMPLE
 MFST.F                90:   MUD FILTRATE SAMPLE TEMPERATURE
 RMC .OHMM           0.17:   RESISTIVITY MUD CAKE
 MCST.F                90:   MUD CAKE SAMPLE TEMPERATURE
 MFSS.               CALC:   MUD FILTRATE SAMPLE SOURCE
 MCSS.               CALC:   MUD CAKE SAMPLE SOURCE
 TCS .HRS               7:   TIME CURCULATED STOPPED
 MRT .F               100:   MAXIMUM RECORDED TEMPERATURE
 LUN .               6270:   LOGGING UNIT NUMBER
 LUL .                 FM:   LOGGING UNIT LOCATION
 ENGI.          E. GOVETT:   RECORDING ENGINEER
 WITN.         MR. GROOMS:   WITNESSED BY
 CLNT.            A2DTECH:   CLIENT CODE
 ORIG.           5" PRINT:   ORIGIN OF DATA
 UWI .       490251100100:   UNIQUE WELL ID
 DICO. A2D Technologies, Inc.:   DIGITIZING COMPANY
~OTHER INFORMATION
~A   DEPT       DT       CALD       CORR        GRD         NPHI     DPHI       RHOB         RD       RMLL         RS   
# ...
  380.5000    94.3589     8.0143     0.0036    82.0420     0.2441     0.1669     2.3922    18.5578    12.3127    16.7461
  381.0000    94.0616     8.0135     0.0066    83.8438     0.2480     0.1645     2.4010    18.3159    11.4990    16.5301
  381.5000    93.6752     8.0128     0.0308    84.1441     0.2583     0.1624     2.4040    18.0773    10.4457    16.3159
  382.0000    93.3657     8.0120     0.0398    83.6937     0.2610     0.1621     2.4054    17.8417     9.2938    16.0952
  382.5000    92.9811     8.0113     0.0307    83.3934     0.2577     0.1627     2.4069    17.6125     8.0989    15.8970
  383.0000    92.5965     8.0105     0.0292    83.0931     0.2486     0.1645     2.4061    17.3831     7.4596    15.6945
  383.5000    92.2870     8.0098     0.0322    83.2542     0.2492     0.1676     2.4023    17.2756     7.2581    15.4916
  384.0000    92.1278     8.0001     0.0398    84.7447     0.2559     0.1667     2.3992    17.1693     7.5784    15.3942
  384.5000    92.0437     7.9932     0.0428    85.3453     0.2626     0.1640     2.4007    17.0512     8.1582    15.3005
  385.0000    92.0348     7.9924     0.0382    84.7447     0.2650     0.1616     2.4060    16.9582    10.2964    15.3160
  385.5000    92.0258     7.9917     0.0229    84.7307     0.2674     0.1604     2.4097    16.8537    11.5130    15.1179
  386.0000    92.0943     7.9910     0.0185    86.2462     0.2602     0.1610     2.4097    16.8694    12.0120    15.1302
  386.5000    92.1582     7.9902     0.0185    87.5976     0.2523     0.1628     2.4074    16.7654    12.5326    15.0379
  387.0000    92.2244     7.9895     0.0185    88.4985     0.2508     0.1643     2.4051    16.7779    12.9856    14.9466
  387.5000    92.2154     7.9887     0.0217    88.0480     0.2529     0.1640     2.4043    16.7904    13.4549    14.9590
  388.0000    92.2065     7.9879     0.0306    87.4474     0.2517     0.1610     2.4080    16.6833    13.5574    14.8678
  388.5000    92.1224     7.9872     0.0351    87.1471     0.2502     0.1583     2.4110    16.6811    13.2932    14.8829
  389.0000    91.9632     7.9865     0.0366    87.1471     0.2509     0.1574     2.4140    16.6789    13.0312    14.7893
  389.5000    91.7289     7.9856     0.0274    86.5465     0.2515     0.1593     2.4124    16.6766    12.8634    14.8043
  390.0000    91.4194     8.0000     0.0184    84.4444     0.2476     0.1605     2.4124    16.6744    12.9766    14.8163
  390.5000    91.1099     8.0023     0.0199    83.5435     0.2464     0.1557     2.4146    16.6722    13.1595    14.8284
  391.0000    90.8756     8.0135     0.0275    83.8438     0.2464     0.1539     2.4191    16.6699    13.0802    14.8404
  391.5000    90.5661     8.0128     0.0380    86.8468     0.2479     0.1539     2.4228    16.6677    12.8225    14.7471
  392.0000    90.4820     8.0120     0.0395    89.2493     0.2554     0.1545     2.4227    16.6727    13.1032    14.6600
  392.5000    90.7736     8.0113     0.0274    92.5727     0.2612     0.1518     2.4220    16.5697    13.1147    14.5711
  393.0000    90.9151     8.0105     0.0214    94.6547     0.2609     0.1460     2.4273    16.4677    12.8536    14.4825
  393.5000    90.9060     7.9947     0.0183    94.5045     0.2549     0.1397     2.4363    16.4804    12.6907    14.4947
  394.0000    90.8219     7.9623     0.0228    93.4535     0.2301     0.1370     2.4469    16.4953    12.5269    14.5090
  394.5000    90.5873     7.8878     0.0334    91.9520     0.2310     0.1379     2.4528    16.3936    12.7131    14.5207
  395.0000    90.4282     7.8270     0.0485    89.4694     0.2386     0.1416     2.4483    16.4059    13.2766    14.4295
  395.5000    90.4354     7.8112     0.0590    88.0480     0.2521     0.1425     2.4407    16.3017    13.9668    14.3446
  396.0000    90.4273     7.7955     0.0575    93.1532     0.2661     0.1404     2.4399    16.0922    14.2434    14.1590
  396.5000    90.5727     7.7946     0.0575    95.1051     0.2694     0.1419     2.4436    15.7729    12.4983    14.0729
  397.0000    90.7165     7.7939     0.0575    94.4944     0.2737     0.1516     2.4292    15.4598     9.2878    13.9844
  397.5000    90.8587     7.7932     0.0454    90.3003     0.2755     0.1607     2.4050    15.3641     6.8543    13.8060
  398.0000    91.0042     7.8077     0.0331    87.4474     0.2688     0.1643     2.3967    15.3760     6.0984    13.7223
  398.5000    90.2441     7.8519     0.0162    87.2973     0.2613     0.1465     2.4193    15.7167     6.1889    13.8290
  399.0000    89.4857     7.9111     0.0000    88.1982     0.2601     0.1377     2.4480    16.0695     6.2360    14.0481
  399.5000    89.1032     7.9407     0.0061    93.6071     0.2565     0.1335     2.4547    16.4052     5.8252    14.3414
  400.0000    89.0215     8.0000     0.0211    94.0541     0.2536     0.1374     2.4529    16.6466     5.6710    14.5529
  400.5000    89.3909     7.9393     0.0241    94.2007     0.2495     0.1405     2.4466    16.4297     6.1882    14.5647
  401.0000    89.9106     7.9239     0.0271    94.3474     0.2496     0.1435     2.4403    16.1036     7.0429    14.2744
  401.5000    90.5056     7.9385     0.0271    94.6434     0.2520     0.1466     2.4334    15.8908     7.7132    13.9955
  402.0000    91.1005     7.9681     0.0270    91.9364     0.2495     0.1475     2.4326    15.5783     8.2735    13.8145
  402.5000    91.3964     7.9676     0.0270    92.5335     0.2423     0.1451     2.4356    15.5899     8.8134    13.8258
  403.0000    91.6906     7.9371     0.0284    96.7342     0.2423     0.1469     2.4356    15.4935     9.3236    13.7413
  403.5000    91.9079     7.9065     0.0330    99.8831     0.2532     0.1491     2.4295    15.5054     9.6606    13.7528
  404.0000    92.0518     7.9061     0.0434    97.4772     0.2634     0.1500     2.4279    15.5171     9.8039    13.6691
  404.5000    92.1220     7.9057     0.0540    93.7200     0.2686     0.1506     2.4272    15.5290     8.9059    13.5859
  405.0000    92.2659     7.9203     0.0630    91.9138     0.2698     0.1506     2.4271    15.5429     8.6104    13.5997
  405.5000    92.2577     7.9499     0.0584    94.0125     0.2683     0.1518     2.4263    15.4442     8.6811    13.6108
  406.0000    92.2995     7.9646     0.0402    97.9129     0.2592     0.1521     2.4263    15.3733     9.0617    13.5252
  406.5000    92.3214     7.9641     0.0251   101.5122     0.2468     0.1488     2.4308    15.1491     9.4485    13.3530
  407.0000    92.4636     7.9635     0.0175   101.2084     0.2474     0.1476     2.4277    14.9249     9.5887    13.0895
  407.5000    92.6826     7.9631     0.0174   100.9047     0.2586     0.1498     2.4292    14.6713     9.8667    12.9175
  408.0000    92.8264     7.9627     0.0204    99.6991     0.2640     0.1483     2.4371    14.3810    10.1527    12.7505
  408.5000    92.9719     7.9772     0.0279    98.7948     0.2571     0.1410     2.4487    14.1973    10.5197    12.5014
  409.0000    93.1893     7.9919     0.0203    98.3408     0.2505     0.1389     2.4502    13.9164    10.8811    12.3397
  409.5000    93.4083     7.9914     0.0173    97.8861     0.2468     0.1386     2.4487    13.6383    11.3179    12.1801
  410.0000    93.5537     8.0211     0.0248    96.8315     0.2462     0.1375     2.4494    13.2788    11.1738    11.9397
  410.5000    93.7711     8.0206     0.0325    96.0773     0.2595     0.1360     2.4516    13.1010    10.7484    11.7877
  411.0000    93.9917     8.0201     0.0386    95.7727     0.2758     0.1336     2.4561    12.7610    10.5352    11.6329
  411.5000    94.2859     8.0196     0.0424    96.8203     0.3000     0.1315     2.4606    12.4222    10.3961    11.3270
  412.0000    94.5801     8.0192     0.0457    98.4685     0.2952     0.1278     2.4651    12.0923    10.1898    11.1035
  412.5000    95.1735     8.0188     0.0472   101.0167     0.2737     0.1267     2.4666    11.7711    10.0590    10.8843
  413.0000    95.7684     8.0183     0.0441   103.2655     0.2616     0.1267     2.4650    11.4585     9.9277    10.5230
  413.5000    95.9122     8.0178     0.0411   104.7635     0.2629     0.1282     2.4589    11.1542     9.7986    10.1036
