~VERSION INFORMATION
 VERS.                2.0:   CWLS LOG ASCII STANDARD - VERSION 2.0
 WRAP.                 NO:   ONE LINE PER DEPTH STEP
~WELL INFORMATION
#MNEM.UNIT      DATA TYPE    INFORMATION
#----------   ------------   ------------------------------
 STRT.F           12.0000:   START DEPTH
 STOP.F          449.0000:   STOP DEPTH
 STEP.F            0.5000:   STEP LENGTH
 NULL.          -999.2500:   NO VALUE
 COMP. LAWRENCE-ALLISON &AS:   COMPANY
 WELL. NPR 3 #58-66SX3LI1:   WELL
 FLD .            WALDCAT:   FIELD
 LOC .       S3 T38N R78W:   LOCATION
 CNTY.            NATRONA:   COUNTY
 STAT.            WYOMING:   STATE
 CTRY. UNITED STATES OF AMERICA:   COUNTRY
 SRVC.      Dresser Atlas:   SERVICE COMPANY
 DATE.        11-JAN-1985:   LOGDATE
 API .       490251100100:   API NUMBER
~CURVE INFORMATION
#MNEM.UNIT       API CODE    CURVE DESCRIPTION
#----------   ------------   ------------------------------
 DEPT.F                  :   
 DT  .US/F   60 520 00 00:   INTERVAL TRANSIT TIME
 CALD.IN     45 280 60 00:   CALIPER FROM DENSITY LOG
 CORR.G/C3   45 356 01 00:   DENSITY CORRECTION
 GRD .GAPI   45 310 01 00:   GAMMA RAY FROM DENSITY LOG
 NPHI.DEC    42 890 03 00:   NEUTRON POROSITY SANDSTONE
 DPHI.DEC    45 890 12 00:   DENSITY POROSITY SANDSTONE
 RHOB.G/C3   45 350 01 00:   BULK DENSITY
 RD  .OHMM   11 220 10 00:   RESISTIVITY DEEP
 RMLL.OHMM   11 270 04 00:   MICRO LATEROLOG
 RS  .OHMM   11 220 09 00:   RESISTIVITY SHALLOW
~PARAMETER INFORMATION
#MNEM.UNIT          VALUE    DESCRIPTION
#----------   ------------   ------------------------------
 PD  .                 GL:   PERMANENT DATUM
 EPD .F              5184:   ELEVATION PERMANENT DATUM
 LMF .                 GL:   LOG MEASURED FROM
 DMF .                 GL:   DRILLING MEASURED FROM
 EGL .F              5184:   GROUND LEVEL
 DATE.        11-JAN-1985:   RUN DATE
 RUN .                  1:   RUN NUMBER
 DD  .F               451:   DEPTH DRILLER
 DL  .F               451:   DEPTH LOGGER
 BLI .F               442:   BOTTOM LOG INTERVAL
 TLI .F                20:   TOP LOG INTERVAL
 CS  .IN            8.625:   CASING SIZE
 CBD .F                20:   CASING BOTTOM DRILLER
 CBL .F                20:   CASING BOTTOM LOGGER
 BS  .IN            7.875:   BIT SIZE
 BSD .F               451:   BIT SIZE AT DEPTH
 DFT .          WATER-KCL:   DRILLING FLUID TYPE
 MSS .           MUD TANK:   MUD SAMPLE SOURCE
 RMS .OHMM           0.14:   RESISTIVITY MUD SAMPLE
 MST .F                90:   MUD SAMPLE TEMPERATURE
 RMF .OHMM           0.10:   RESISTIVITY MUD FILTRATE SAMPLE
 MFST.F                90:   MUD FILTRATE SAMPLE TEMPERATURE
 RMC .OHMM           0.17:   RESISTIVITY MUD CAKE
 MCST.F                90:   MUD CAKE SAMPLE TEMPERATURE
 MFSS.               CALC:   MUD FILTRATE SAMPLE SOURCE
 MCSS.               CALC:   MUD CAKE SAMPLE SOURCE
 TCS .HRS               7:   TIME CURCULATED STOPPED
 MRT .F               100:   MAXIMUM RECORDED TEMPERATURE
 LUN .               6270:   LOGGING UNIT NUMBER
 LUL .                 FM:   LOGGING UNIT LOCATION
 ENGI.          E. GOVETT:   RECORDING ENGINEER
 WITN.         MR. GROOMS:   WITNESSED BY
 CLNT.            A2DTECH:   CLIENT CODE
 ORIG.           5" PRINT:   ORIGIN OF DATA
 UWI .       490251100100:   UNIQUE WELL ID
 DICO. A2D Technologies, Inc.:   DIGITIZING COMPANY
~OTHER INFORMATION
~A   DEPT       DT       CALD       CORR        GRD         NPHI     DPHI       RHOB         RD       RMLL         RS   
# ...
  347.0000   108.7935     7.9868     0.0199    76.6787     0.2504     0.2248     2.3000    38.3085     9.1045    36.0714
  347.5000   107.8836     7.9865     0.0183    79.7898     0.2522     0.2221     2.3052    38.0749     9.3672    36.3513
  348.0000   106.9738     7.9711     0.0198    78.5886     0.2661     0.2236     2.3067    37.3087     9.4394    35.8813
  348.5000   106.4396     7.9557     0.0228    72.7327     0.2676     0.2266     2.3052    36.8080     9.2522    35.9106
  349.0000   106.8822     7.9254     0.0258    69.8799     0.2625     0.2263     2.3028    36.3611     9.0688    35.6912
  349.5000   107.1744     7.9251     0.0318    70.3303     0.2559     0.2241     2.3044    36.9062     9.1387    35.9692
  350.0000   107.1662     7.9247     0.0363    75.2941     0.2531     0.2193     2.3059    37.4519     9.4024    36.7531
  350.5000   106.6320     7.9392     0.0362    79.1518     0.2568     0.2236     2.3006    38.2700     9.9454    37.5590
  351.0000   105.0460     7.9533     0.0286    83.0095     0.2604     0.2278     2.2960    37.7741     9.7482    37.0733
  351.5000   103.3848     7.9526     0.0195    86.5465     0.2641     0.2251     2.3035    36.2652     8.3191    35.5955
  352.0000   101.1949     7.9670     0.0105    89.5496     0.2678     0.2200     2.3133    33.8647     7.5561    33.9412
  352.5000   101.2611     7.9813     0.0241    89.2493     0.2715     0.2124     2.3217    32.5120     7.7742    32.5883
  353.0000   101.5526     7.9805     0.0377    87.2973     0.2752     0.2103     2.3245    32.0841     8.7592    31.7250
  353.5000   102.2950     7.9797     0.0467    84.2943     0.2788     0.2143     2.3230    32.3403     9.2681    31.0987
  354.0000   102.8871     7.9786     0.0482    80.6347     0.2819     0.2170     2.3154    31.9212     9.5368    30.8986
  354.5000   102.9555     7.9630     0.0437    80.2402     0.2650     0.2176     2.3131    31.7267     9.4793    30.2997
  355.0000   101.5168     7.9473     0.0346    82.4925     0.2623     0.2176     2.3123    30.8776     9.1015    29.9139
  355.5000    96.8497     7.9466     0.0285    82.9429     0.2581     0.2152     2.3206    30.0647     8.8587    29.5210
  356.0000    87.8250     7.9459     0.0255    80.5405     0.2491     0.2098     2.3455    29.8814     8.9301    30.8027
  356.5000    83.9092     7.9451     0.0225    75.2853     0.2494     0.1929     2.3741    33.8861     9.6454    32.8072
  357.0000    83.3766     7.9444     0.0134    74.2342     0.2518     0.1736     2.4096    36.0964    11.7196    34.7012
  357.5000    83.8913     7.9368     0.0058    74.0841     0.2554     0.1295     2.4617    36.8849    16.2037    35.7034
  358.0000    90.7945     7.9278     0.0107    76.3363     0.2591     0.1221     2.4752    36.9150    23.9276    34.9988
  358.5000    94.4670     7.9271     0.0375    78.9109     0.2657     0.1549     2.4148    33.9970    22.3796    29.4658
  359.0000    96.4114     7.9414     0.0420    79.6396     0.2706     0.1809     2.3785    28.8112     9.7574    28.4884
  359.5000    97.3041     7.9405     0.0224    78.1381     0.2718     0.1966     2.3429    25.8083     6.6266    25.1452
  360.0000    96.9946     7.9398     0.0163    77.5375     0.2712     0.2039     2.3391    24.4364     6.3172    23.0087
  360.5000    94.5063     7.9240     0.0133    79.9399     0.2525     0.2000     2.3466    24.1197     8.6966    22.4192
  361.0000    91.4170     7.9083     0.0118    84.7447     0.2446     0.1906     2.3662    24.3073     9.9283    22.5977
  361.5000    87.2547     7.8923     0.0117    85.4955     0.2376     0.1730     2.4210    25.1849    10.5031    23.7376
  362.0000    85.3885     7.8766     0.0163    80.5405     0.2344     0.1432     2.4583    27.2073    11.5027    25.9913
  362.5000    88.6978     7.8608     0.0283    79.3393     0.2362     0.1272     2.4658    28.1847    15.6139    26.5523
  363.0000    94.0136     7.8451     0.0555    80.2563     0.2468     0.1429     2.4099    27.1333    19.0344    23.7955
  363.5000    98.9392     7.7814     0.0827    81.7417     0.2604     0.1807     2.3517    23.2558    13.4340    19.2200
  364.0000   101.8222     7.6931     0.0978    82.7928     0.2731     0.2148     2.3077    19.7084     9.7103    16.6358
  364.5000   103.8990     7.7375     0.0585    82.3423     0.2779     0.2287     2.3033    17.6543     8.3455    15.4299
  365.0000   104.5663     7.9022     0.0464    82.1722     0.2742     0.2134     2.3387    16.6003     8.0129    15.0211
  365.5000   104.3319     7.8865     0.0418    84.2132     0.2695     0.1974     2.3523    16.4958     5.8726    15.3620
  366.0000   103.1209     7.6600     0.0463    86.2462     0.2604     0.1916     2.3568    16.8596     4.9093    15.9045
  366.5000   101.6844     7.6593     0.0494    87.1471     0.2574     0.1913     2.3568    17.4683     5.4515    16.2510
  367.0000   100.5485     7.6437     0.0524    82.7928     0.2662     0.1926     2.3551    18.2249     7.0497    16.8364
  367.5000    99.9385     7.7180     0.0539    79.9299     0.2755     0.1944     2.3521    18.8829     8.5658    17.3226
  368.0000    99.7793     7.8079     0.0538    79.4895     0.2629     0.1968     2.3491    19.5646     9.0634    17.8229
  368.5000    99.7704     7.9269     0.0431    80.0901     0.2553     0.1992     2.3453    20.1310     9.3973    18.0857
  369.0000    99.8388     7.9864     0.0296    80.2402     0.2647     0.2032     2.3414    20.5708     9.6635    18.3525
  369.5000    99.9050     8.0159     0.0190    79.0390     0.2668     0.2062     2.3369    21.0204     9.8751    18.4948
  370.0000    99.7435     8.0150     0.0100    80.7908     0.2702     0.2059     2.3331    21.3315     9.9524    18.5098
  370.5000    99.5843     8.0143     0.0054    83.9940     0.2644     0.2059     2.3323    21.3527    10.0304    18.6535
  371.0000    99.4251     7.9984    -0.0021    84.7447     0.2635     0.2053     2.3330    21.2182    10.0392    18.5399
  371.5000    99.2659     7.9826    -0.0006    84.5946     0.2714     0.2060     2.3352    21.0889    10.1179    18.3038
  372.0000    99.2569     7.9765     0.0099    86.2561     0.2741     0.2075     2.3337    20.8199    10.4112    17.9426
  372.5000    99.3253     7.9662     0.0099    88.3484     0.2790     0.2054     2.3329    20.5459    10.7875    17.8298
  373.0000    99.3142     7.9654     0.0099    87.2973     0.2817     0.2033     2.3336    20.2838    10.7970    17.7249
  373.5000    99.3052     7.9496     0.0114    85.1952     0.2805     0.2002     2.3374    20.0169    10.8067    17.7393
  374.0000    98.9957     7.9488     0.0189    83.8438     0.2660     0.1927     2.3509    19.8949    10.7309    17.7537
  374.5000    98.2355     7.9481     0.0219    85.5125     0.2609     0.1882     2.3592    19.9152    10.2444    17.7681
  375.0000    97.5503     7.9472     0.0098    85.9459     0.2606     0.1870     2.3629    19.7932    10.1101    17.7825
  375.5000    96.8652     7.9466    -0.0008    83.5435     0.2654     0.1861     2.3651    19.8100    10.8470    17.7970
  376.0000    96.1801     7.9608    -0.0023    81.7417     0.2715     0.1846     2.3668    19.8262    11.3958    17.8115
  376.5000    95.3447     7.9601     0.0249    81.1411     0.2718     0.1819     2.3726    19.7982    11.7262    17.8263
  377.0000    94.6596     7.9744     0.0462    82.4925     0.2661     0.1783     2.3779    19.6414    11.9829    17.8440
  377.5000    94.1998     7.9737     0.0430    84.1441     0.2603     0.1744     2.3839    19.4846    12.2452    17.6096
  378.0000    94.1157     7.9880     0.0414    85.9459     0.2576     0.1723     2.3891    19.3279    11.6760    17.5060
  378.5000    94.2602     8.0021     0.0445    86.6967     0.2552     0.1699     2.3951    19.1711    10.8292    17.3960
  379.0000    94.3984     8.0015     0.0522    84.1963     0.2501     0.1693     2.3966    19.0143    10.8510    17.1745
  379.5000    94.4721     8.0007     0.0580    79.9399     0.2446     0.1723     2.3920    18.8575    11.7357    17.0700
  380.0000    94.5307     8.0000     0.0127    79.3393     0.2431     0.1716     2.3875    18.7007    12.5601    16.9627
