~VERSION INFORMATION
 VERS.                2.0:   CWLS LOG ASCII STANDARD - VERSION 2.0
 WRAP.                 NO:   ONE LINE PER DEPTH STEP
~WELL INFORMATION
#MNEM.UNIT      DATA TYPE    INFORMATION
#----------   ------------   ------------------------------
 STRT.F           12.0000:   START DEPTH
 STOP.F          449.0000:   STOP DEPTH
 STEP.F            0.5000:   STEP LENGTH
 NULL.          -999.2500:   NO VALUE
 COMP. LAWRENCE-ALLISON &AS:   COMPANY
 WELL. NPR 3 #58-66SX3LI1:   WELL
 FLD .            WALDCAT:   FIELD
 LOC .       S3 T38N R78W:   LOCATION
 CNTY.            NATRONA:   COUNTY
 STAT.            WYOMING:   STATE
 CTRY. UNITED STATES OF AMERICA:   COUNTRY
 SRVC.      Dresser Atlas:   SERVICE COMPANY
 DATE.        11-JAN-1985:   LOGDATE
 API .       490251100100:   API NUMBER
~CURVE INFORMATION
#MNEM.UNIT       API CODE    CURVE DESCRIPTION
#----------   ------------   ------------------------------
 DEPT.F                  :   
 DT  .US/F   60 520 00 00:   INTERVAL TRANSIT TIME
 CALD.IN     45 280 60 00:   CALIPER FROM DENSITY LOG
 CORR.G/C3   45 356 01 00:   DENSITY CORRECTION
 GRD .GAPI   45 310 01 00:   GAMMA RAY FROM DENSITY LOG
 NPHI.DEC    42 890 03 00:   NEUTRON POROSITY SANDSTONE
 DPHI.DEC    45 890 12 00:   DENSITY POROSITY SANDSTONE
 RHOB.G/C3   45 350 01 00:   BULK DENSITY
 RD  .OHMM   11 220 10 00:   RESISTIVITY DEEP
 RMLL.OHMM   11 270 04 00:   MICRO LATEROLOG
 RS  .OHMM   11 220 09 00:   RESISTIVITY SHALLOW
~PARAMETER INFORMATION
#MNEM.UNIT          VALUE    DESCRIPTION
#----------   ------------   ------------------------------
 PD  .                 GL:   PERMANENT DATUM
 EPD .F              5184:   ELEVATION PERMANENT DATUM
 LMF .                 GL:   LOG MEASURED FROM
 DMF .                 GL:   DRILLING MEASURED FROM
 EGL .F              5184:   GROUND LEVEL
 DATE.        11-JAN-1985:   RUN DATE
 RUN .                  1:   RUN NUMBER
 DD  .F               451:   DEPTH DRILLER
 DL  .F               451:   DEPTH LOGGER
 BLI .F               442:   BOTTOM LOG INTERVAL
 TLI .F                20:   TOP LOG INTERVAL
 CS  .IN            8.625:   CASING SIZE
 CBD .F                20:   CASING BOTTOM DRILLER
 CBL .F                20:   CASING BOTTOM LOGGER
 BS  .IN            7.875:   BIT SIZE
 BSD .F               451:   BIT SIZE AT DEPTH
 DFT .          WATER-KCL:   DRILLING FLUID TYPE
 MSS .           MUD TANK:   MUD SAMPLE SOURCE
 RMS .OHMM           0.14:   RESISTIVITY MUD SAMPLE
 MST .F                90:   MUD SAMPLE TEMPERATURE
 RMF .OHMM           0.10:   RESISTIVITY MUD FILTRATE SAMPLE
 MFST.F                90:   MUD FILTRATE SAMPLE TEMPERATURE
 RMC .OHMM           0.17:   RESISTIVITY MUD CAKE
 MCST.F                90:   MUD CAKE SAMPLE TEMPERATURE
 MFSS.               CALC:   MUD FILTRATE SAMPLE SOURCE
 MCSS.               CALC:   MUD CAKE SAMPLE SOURCE
 TCS .HRS               7:   TIME CURCULATED STOPPED
 MRT .F               100:   MAXIMUM RECORDED TEMPERATURE
 LUN .               6270:   LOGGING UNIT NUMBER
 LUL .                 FM:   LOGGING UNIT LOCATION
 ENGI.          E. GOVETT:   RECORDING ENGINEER
 WITN.         MR. GROOMS:   WITNESSED BY
 CLNT.            A2DTECH:   CLIENT CODE
 ORIG.           5" PRINT:   ORIGIN OF DATA
 UWI .       490251100100:   UNIQUE WELL ID
 DICO. A2D Technologies, Inc.:   DIGITIZING COMPANY
~OTHER INFORMATION
~A   DEPT       DT       CALD       CORR        GRD         NPHI     DPHI       RHOB         RD       RMLL         RS   
# ...
   79.0000    96.4385     8.2857     0.0247    94.5674     0.2613     0.1207     2.4833    76.6101     9.7707    13.2955
   79.5000    95.2289     8.2707     0.0157    95.1666     0.2619     0.1201     2.4810    79.3718     9.9830    13.7602
   80.0000    93.7939     8.2556     0.0112    97.2873     0.2604     0.1207     2.4742    81.6651    10.2707    14.2538
   80.5000    93.1102     8.2556     0.0157    97.7163     0.2453     0.1238     2.4681    85.1974    10.5668    14.5624
   81.0000    93.8540     8.2556     0.0111    96.5134     0.2387     0.1295     2.4636    88.2686    10.9470    14.8777
   81.5000    95.4242     8.2707     0.0126    96.8123     0.2405     0.1329     2.4613    90.8193    11.6594    14.7852
   82.0000    96.3934     8.2863     0.0247    98.9127     0.2499     0.1341     2.4613    89.0181    11.9933    14.5920
   82.5000    96.6864     8.3036     0.0307    99.2119     0.2556     0.1338     2.4643    86.6669    11.3572    14.4013
   83.0000    96.7540     8.3459     0.0337    95.9069     0.2589     0.1323     2.4665    84.9484    10.8275    14.2129
   83.5000    96.7465     8.3459     0.0488    97.4066     0.2604     0.1302     2.4665    83.8430    10.6126    14.0274
   84.0000    96.7390     8.3609     0.0534   100.5584     0.2595     0.1297     2.4656    82.1805    10.5469    13.8441
   84.5000    96.9568     8.3759     0.0488   102.3588     0.2577     0.1287     2.4574    81.1111    10.4817    13.6632
   85.0000    97.2498     8.3759     0.0261   104.0691     0.2604     0.1333     2.4544    80.0404    10.3449    13.3940
   85.5000    97.6180     8.3759     0.0095   105.5092     0.2665     0.1366     2.4521    78.9988    10.3542    13.3085
   86.0000    97.9861     8.3910     0.0231    99.0510     0.2773     0.1372     2.4506    77.4471    10.3617    13.1346
   86.5000    98.2791     8.3910     0.0291    96.7813     0.2683     0.1396     2.4498    76.4393    10.2957    13.0529
   87.0000    98.5721     8.3904     0.0351    97.0959     0.2607     0.1402     2.4521    75.4447    10.1633    12.9717
   87.5000    98.7919     8.3759     0.0397    96.6440     0.2589     0.1375     2.4505    74.4160    10.0307    12.8910
   88.0000    98.4068     8.3759     0.0396    93.9399     0.2619     0.1378     2.4452    73.5080     9.9684    12.9019
   88.5000    97.7982     8.3759     0.0245    91.9862     0.2641     0.1405     2.4445    73.5601     9.7707    12.8214
   89.0000    97.1897     8.3759     0.0230    90.9338     0.2692     0.1421     2.4475    73.7102     9.7103    12.8303
   89.5000    96.7313     8.3728     0.0351    90.3318     0.2746     0.1348     2.4580    73.8604     9.7175    12.8392
   90.0000    96.4233     8.3609     0.0335    91.0808     0.2719     0.1273     2.4716    74.0105     9.7260    12.8481
   90.5000    96.1904     8.3609     0.0214    92.7311     0.2520     0.1233     2.4806    74.1607     9.7330    12.8586
   91.0000    96.0326     8.3609     0.0033    94.3813     0.2471     0.1203     2.4803    74.3108     9.7400    12.8673
   91.5000    95.8748     8.3609    -0.0058    93.9715     0.2495     0.1199     2.4791    74.4127     9.9516    12.9653
   92.0000    93.8387     8.3566     0.0048    87.3211     0.2520     0.1119     2.4882    76.0464    10.1679    13.1547
   92.5000    92.0281     8.3459     0.0214    86.2687     0.2520     0.1064     2.5048    78.2436    10.3171    13.4396
   93.0000    91.4195     8.3355     0.0304    86.5916     0.2538     0.1031     2.5108    81.0641    10.2514    13.8258
   93.5000    91.9379     8.3158     0.0168    94.6739     0.2610     0.1045     2.5077    82.8303    10.8451    14.2232
   94.0000    94.5231     8.3008     0.0169    97.6756     0.2701     0.1173     2.4715    84.0505    11.8753    13.6544
   94.5000    98.1908     8.2945     0.0289    99.4760     0.2759     0.1369     2.4503    79.5780    12.1346    12.8392
   95.0000   100.2698     8.2857     0.0364   100.9757     0.2861     0.1451     2.4397    74.8232    11.5591    12.1359
   95.5000   101.1496     8.2707     0.0394   101.5749     0.2924     0.1473     2.4352    70.8417     9.1490    11.5899
   96.0000   100.6104     8.2750     0.0198   101.8739     0.2949     0.1493     2.4321    68.0082     8.6622    11.5178
   96.5000   100.2668     8.2857    -0.0029    99.7700     0.2906     0.1530     2.4231    67.1233     8.6684    11.6076
   97.0000   100.4864     8.2857    -0.0120    99.7686     0.2822     0.1578     2.4215    67.6433     8.7349    11.6154
   97.5000   100.7812     8.2857    -0.0014    99.9177     0.2801     0.1559     2.4245    68.1640     8.8631    11.6233
   98.0000   101.2264     8.2857     0.0061    97.1331     0.2798     0.1524     2.4276    67.2770     8.9312    11.5490
   98.5000   101.2204     8.2857     0.0091    93.0073     0.2792     0.1500     2.4291    66.8634     8.7538    11.4772
   99.0000   101.0641     8.2857     0.0122    92.8558     0.2813     0.1478     2.4328    66.0059     8.5800    11.3272
   99.5000   100.6070     8.2857     0.0151    93.7673     0.2810     0.1469     2.4351    65.5875     8.4096    11.1811
  100.0000   100.3754     8.2857     0.0151    95.1049     0.2767     0.1469     2.4335    65.1967     8.3576    11.0350
  100.5000   100.2943     8.2857     0.0166    94.5029     0.2710     0.1509     2.4326    65.2464     8.5447    10.8841
  101.0000   100.7395     8.2857     0.0150    93.1501     0.2732     0.1500     2.4324    64.6516     8.9730    10.6762
  101.5000   101.2598     8.2857     0.0150    91.6377     0.2743     0.1470     2.4322    64.2773     9.0446    10.6098
  102.0000   101.7802     8.2857     0.0181    92.0838     0.2722     0.1445     2.4331    63.9030     8.6138    10.5438
  102.5000   101.9248     8.3008     0.0239    94.9324     0.2731     0.1458     2.4366    63.5287     8.3789    10.4765
  103.0000   101.9186     8.3008     0.0284    98.7538     0.2768     0.1476     2.4373    63.1544     8.3342    10.4853
  103.5000   101.9127     8.3008     0.0329   100.6284     0.2810     0.1470     2.4335    62.7801     8.2823    10.4184
  104.0000   101.9067     8.3008     0.0404    98.2217     0.2819     0.1443     2.4350    62.0252     8.2893    10.3536
  104.5000   102.1263     8.3025     0.0464    96.1153     0.2681     0.1421     2.4411    62.0672     8.2363    10.2200
  105.0000   102.3459     8.3045     0.0388    96.1110     0.2665     0.1434     2.4441    62.1092     8.1863    10.2269
  105.5000   102.3398     8.3065     0.0297    96.2568     0.2720     0.1458     2.4418    62.1513     8.0792    10.2338
  106.0000   102.1514     8.3085     0.0206    93.6989     0.2762     0.1452     2.4381    62.6259     7.9735    10.3907
  106.5000   101.5652     8.3105     0.0236    92.1931     0.2678     0.1397     2.4404    63.1041     7.8148    10.5369
  107.0000   101.2692     8.3125     0.0281    91.8885     0.2681     0.1367     2.4486    63.1470     7.8201    10.5295
  107.5000   101.4876     8.3145     0.0310    93.3857     0.2762     0.1379     2.4547    62.7531     8.2751    10.4946
  108.0000   101.8575     8.3165     0.0295    99.0871     0.3089     0.1407     2.4502    62.3619     8.6377    10.4598
  108.5000   102.3779     8.3185     0.0174   106.2889     0.3096     0.1446     2.4411    61.9732     8.9394    10.4204
  109.0000   102.7479     8.3205     0.0158   109.7380     0.3012     0.1500     2.4320    60.7493     8.2894    10.2134
  109.5000   103.1930     8.3225     0.0203   105.8298     0.2914     0.1515     2.4275    56.7202     7.8479     9.8730
  110.0000   103.7886     8.3245     0.0323   100.2700     0.2975     0.1500     2.4267    49.7560     7.6387     9.4782
  110.5000   104.4593     8.3265     0.0444    95.7612     0.3074     0.1476     2.4305    43.3455     7.3837     9.0365
  111.0000   104.6804     8.3285     0.0398    94.7057     0.3114     0.1446     2.4396    39.3641     7.1373     8.9182
  111.5000   104.0714     8.3305     0.0322    95.6013     0.3099     0.1421     2.4471    36.7533     6.8514     8.9244
  112.0000   103.5392     8.3325     0.0274    99.3508     0.2879     0.1392     2.4502    37.8120     6.6686     8.9925
