~VERSION INFORMATION
 VERS.                2.0:   CWLS LOG ASCII STANDARD - VERSION 2.0
 WRAP.                 NO:   ONE LINE PER DEPTH STEP
~WELL INFORMATION
#MNEM.UNIT      DATA TYPE    INFORMATION
#----------   ------------   ------------------------------
 STRT.F           12.0000:   START DEPTH
 STOP.F          449.0000:   STOP DEPTH
 STEP.F            0.5000:   STEP LENGTH
 NULL.          -999.2500:   NO VALUE
 COMP. LAWRENCE-ALLISON &AS:   COMPANY
 WELL. NPR 3 #58-66SX3LI1:   WELL
 FLD .            WALDCAT:   FIELD
 LOC .       S3 T38N R78W:   LOCATION
 CNTY.            NATRONA:   COUNTY
 STAT.            WYOMING:   STATE
 CTRY. UNITED STATES OF AMERICA:   COUNTRY
 SRVC.      Dresser Atlas:   SERVICE COMPANY
 DATE.        11-JAN-1985:   LOGDATE
 API .       490251100100:   API NUMBER
~CURVE INFORMATION
#MNEM.UNIT       API CODE    CURVE DESCRIPTION
#----------   ------------   ------------------------------
 DEPT.F                  :   
 DT  .US/F   60 520 00 00:   INTERVAL TRANSIT TIME
 CALD.IN     45 280 60 00:   CALIPER FROM DENSITY LOG
 CORR.G/C3   45 356 01 00:   DENSITY CORRECTION
 GRD .GAPI   45 310 01 00:   GAMMA RAY FROM DENSITY LOG
 NPHI.DEC    42 890 03 00:   NEUTRON POROSITY SANDSTONE
 DPHI.DEC    45 890 12 00:   DENSITY POROSITY SANDSTONE
 RHOB.G/C3   45 350 01 00:   BULK DENSITY
 RD  .OHMM   11 220 10 00:   RESISTIVITY DEEP
 RMLL.OHMM   11 270 04 00:   MICRO LATEROLOG
 RS  .OHMM   11 220 09 00:   RESISTIVITY SHALLOW
~PARAMETER INFORMATION
#MNEM.UNIT          VALUE    DESCRIPTION
#----------   ------------   ------------------------------
 PD  .                 GL:   PERMANENT DATUM
 EPD .F              5184:   ELEVATION PERMANENT DATUM
 LMF .                 GL:   LOG MEASURED FROM
 DMF .                 GL:   DRILLING MEASURED FROM
 EGL .F              5184:   GROUND LEVEL
 DATE.        11-JAN-1985:   RUN DATE
 RUN .                  1:   RUN NUMBER
 DD  .F               451:   DEPTH DRILLER
 DL  .F               451:   DEPTH LOGGER
 BLI .F               442:   BOTTOM LOG INTERVAL
 TLI .F                20:   TOP LOG INTERVAL
 CS  .IN            8.625:   CASING SIZE
 CBD .F                20:   CASING BOTTOM DRILLER
 CBL .F                20:   CASING BOTTOM LOGGER
 BS  .IN            7.875:   BIT SIZE
 BSD .F               451:   BIT SIZE AT DEPTH
 DFT .          WATER-KCL:   DRILLING FLUID TYPE
 MSS .           MUD TANK:   MUD SAMPLE SOURCE
 RMS .OHMM           0.14:   RESISTIVITY MUD SAMPLE
 MST .F                90:   MUD SAMPLE TEMPERATURE
 RMF .OHMM           0.10:   RESISTIVITY MUD FILTRATE SAMPLE
 MFST.F                90:   MUD FILTRATE SAMPLE TEMPERATURE
 RMC .OHMM           0.17:   RESISTIVITY MUD CAKE
 MCST.F                90:   MUD CAKE SAMPLE TEMPERATURE
 MFSS.               CALC:   MUD FILTRATE SAMPLE SOURCE
 MCSS.               CALC:   MUD CAKE SAMPLE SOURCE
 TCS .HRS               7:   TIME CURCULATED STOPPED
 MRT .F               100:   MAXIMUM RECORDED TEMPERATURE
 LUN .               6270:   LOGGING UNIT NUMBER
 LUL .                 FM:   LOGGING UNIT LOCATION
 ENGI.          E. GOVETT:   RECORDING ENGINEER
 WITN.         MR. GROOMS:   WITNESSED BY
 CLNT.            A2DTECH:   CLIENT CODE
 ORIG.           5" PRINT:   ORIGIN OF DATA
 UWI .       490251100100:   UNIQUE WELL ID
 DICO. A2D Technologies, Inc.:   DIGITIZING COMPANY
~OTHER INFORMATION
~A   DEPT       DT       CALD       CORR        GRD         NPHI     DPHI       RHOB         RD       RMLL         RS   
# ...
  246.5000   103.7204     8.1685     0.0546   115.6962     0.3072     0.1296     2.4637    14.4133     8.1494     9.8910
  247.0000   103.2640     8.1681     0.0561   116.7445     0.3002     0.1215     2.4743    14.4242     8.2124     9.8991
  247.5000   102.8077     8.1676     0.0494   115.8407     0.2936     0.1209     2.4773    14.4350     8.4482     9.7691
  248.0000   102.9541     8.1522     0.0198   112.9349     0.2876     0.1256     2.4727    14.2470     8.6908     9.5784
  248.5000   103.3987     8.1517     0.0137   110.5791     0.2815     0.1281     2.4653    14.0322     8.4586     9.3247
  249.0000   103.4700     8.1512    -0.0120   110.8765     0.2734     0.1266     2.4706    13.3156     8.1757     9.0777
  249.5000   103.0875     8.1508    -0.0151   111.4750     0.2674     0.1219     2.4826    13.2311     8.0682     9.1482
  250.0000   102.2614     8.1504     0.0048   111.0210     0.2640     0.1139     2.4932    13.5217     8.0175     9.5435
  250.5000   100.9293     8.1650     0.0242   107.1136     0.2598     0.1130     2.4985    14.1064     8.0225    10.0335
  251.0000    99.5972     8.1795     0.0302   106.8104     0.2556     0.1124     2.4924    14.6148     8.1466    10.7045
  251.5000    98.1088     8.1791     0.0317   106.9585     0.2550     0.1148     2.4924    15.1414     8.4911    11.4012
  252.0000    97.3533     8.2011     0.0302   106.9549     0.2580     0.1155     2.4924    15.8566     8.9183    11.9485
  252.5000    97.8007     8.2083     0.0226   107.7021     0.2858     0.1155     2.4901    16.3797     9.1111    11.9583
  253.0000    99.6015     8.2078     0.0120   110.6163     0.3115     0.1161     2.4848    14.1781     9.3197    11.4817
  253.5000   105.3394     8.2073     0.0074   116.9785     0.3502     0.1448     2.4576    10.6077     9.5325    10.1463
  254.0000   111.7443     8.2069     0.0105   121.3691     0.3461     0.1953     2.4153     7.5606     6.6563     7.4908
  254.5000   117.9712     8.2064     0.1026   122.8696     0.3148     0.2203     2.3216     6.4527     4.3974     5.2327
  255.0000   116.5538     8.1910     0.1192   122.4174     0.2879     0.2068     2.3171     6.1105     2.9866     4.9885
  255.5000   110.2587     8.1852     0.1343   116.3800     0.2740     0.1735     2.4092     7.0256     2.1000     5.6947
  256.0000   103.1873     8.1750     0.0520   110.4022     0.2677     0.1198     2.4764     9.8077     2.1610     7.0133
  256.5000    97.7700     8.1444     0.0058   106.3467     0.2592     0.1017     2.5111    13.9104     4.4680     9.5810
  257.0000    96.2626     8.0839     0.0043   104.5435     0.2553     0.1016     2.5126    15.7688     8.0750    12.0466
  257.5000    96.2589     8.0534     0.0043   103.1707     0.2550     0.1036     2.5058    16.4299    10.0151    12.6544
  258.0000    96.7815     8.0379     0.0135   102.4386     0.2568     0.1065     2.5028    16.5560    10.1644    12.9302
  258.5000    97.3041     8.0374     0.0194   106.6410     0.2559     0.1072     2.5020    16.2346    10.1741    12.8498
  259.0000    97.6020     8.0369     0.0179   107.3904     0.2556     0.1081     2.5012    15.9157    10.1838    12.6854
  259.5000    97.7478     8.0365     0.0163   105.6491     0.2571     0.1120     2.5005    15.7078    10.1934    12.5097
  260.0000    99.8493     8.0361     0.0194   104.6848     0.2598     0.1108     2.4997    15.5063    10.2031    12.3621
  260.5000   107.2140     8.0356     0.0238   108.4368     0.2610     0.1096     2.4989    15.3074    10.1399    12.3722
  261.0000   114.8795     8.0352     0.0238   108.7357     0.2450     0.1114     2.4982    15.4322    10.0120    12.6419
  261.5000   118.9359     8.0347     0.0223   107.5327     0.2456     0.1109     2.4966    15.5543     9.8158    13.3718
  262.0000   120.1353     8.0343     0.0253    98.6931     0.2441     0.1091     2.4966    16.3431     9.6900    15.3676
  262.5000   118.9285     8.0331     0.0313    84.7072     0.2363     0.1145     2.4981    20.1391    10.5708    19.3223
  263.0000   119.6767     8.0134     0.0359    66.9877     0.2335     0.1405     2.4936    25.9738    12.9878    22.2062
  263.5000   122.9326     7.9959     0.0404    56.1755     0.2483     0.1858     2.4445    30.7199    13.9300    25.1700
  264.0000   127.3835     7.9807     0.0434    52.4203     0.2598     0.2010     2.3969    34.4457     9.7292    27.1814
  264.5000   129.1253     7.9656     0.0479    52.5812     0.2604     0.1825     2.3492    34.0039     8.1903    27.2036
  265.0000   130.8648     7.9503     0.0494    59.9247     0.2616     0.1789     2.3591    32.4245     7.0885    26.8465
  265.5000   125.0707     7.9502     0.0524    63.5269     0.2607     0.1937     2.3779    31.1335     7.4477    26.5041
  266.0000   120.7813     7.9651     0.0524    65.6275     0.2547     0.2226     2.3794    30.7269     8.0429    26.8959
  266.5000   119.3490     7.9800     0.0493    66.5310     0.2544     0.2330     2.3319    31.6282     6.7724    27.8648
  267.0000   119.7973     8.0258     0.0463    67.8766     0.2583     0.2264     2.2895    33.2319     6.2382    30.7400
  267.5000   118.5897     8.0398     0.0403    69.6770     0.2592     0.2167     2.2925    33.7278     6.7384    32.9485
  268.0000   117.6837     8.0548     0.0278    71.1771     0.2514     0.2137     2.3046    32.6101     7.9643    30.5664
  268.5000   118.1311     8.0395     0.0176    72.9895     0.2565     0.2174     2.3205    31.0955     8.6729    29.5517
  269.0000   119.8567     8.0244     0.0206    74.9277     0.2601     0.2252     2.3250    30.2741     8.7922    29.5757
  269.5000   122.3342     8.0242     0.0402    75.9773     0.2625     0.2261     2.3166    30.7524     7.9338    29.8052
  270.0000   122.7074     8.0240     0.0492    76.1264     0.2520     0.2174     2.2977    31.8470     7.3572    30.4547
  270.5000   122.1764     8.0239     0.0462    75.3499     0.2553     0.2159     2.3017    32.7734     7.6254    31.1183
  271.0000   120.7441     8.0232     0.0235    73.7205     0.2565     0.2162     2.3166    34.1974     7.9565    32.0171
  271.5000   118.9359     8.0085     0.0190    72.5179     0.2544     0.2138     2.3181    35.4368     7.9091    33.1703
  272.0000   116.6014     8.0084     0.0365    71.3152     0.2462     0.2102     2.3166    36.7212     7.7003    34.1283
  272.5000   113.8909     8.0083     0.0522    69.3218     0.2387     0.2090     2.3227    38.3168     8.0905    35.3576
  273.0000   114.0376     7.9931     0.0340    66.0568     0.2369     0.2126     2.3301    39.9816     9.1099    36.3789
  273.5000   116.0161     7.9929     0.0008    65.0043     0.2378     0.2259     2.3256    40.5782     9.3152    37.1964
  274.0000   121.2833     7.9777    -0.0068    64.8531     0.2448     0.2402     2.3105    38.9626     8.1135    37.7212
  274.5000   126.8829     7.9625     0.0053    66.5632     0.2619     0.2507     2.2865    37.6714     7.3542    36.7282
  275.0000   126.0522     7.9549     0.0189    69.3541     0.2631     0.2538     2.2591    37.7073     6.8609    36.0035
  275.5000   118.5297     7.9322     0.0279    69.6534     0.2601     0.2493     2.2530    38.2919     6.2555    36.2828
  276.0000   112.2102     7.9170     0.0340    70.7026     0.2553     0.2357     2.2545    39.9788     5.9240    37.8505
  276.5000   106.1162     7.9168     0.0309    73.4319     0.2353     0.2151     2.2711    43.1473     6.5333    40.8750
  277.0000   103.1802     7.9317     0.0294    74.1533     0.2160     0.1905     2.3663    45.6504     9.1816    44.4475
  277.5000   102.7253     7.9316     0.0354    65.2926     0.2094     0.1856     2.3678    48.9729    11.2343    47.3399
  278.0000   100.4660     7.9615     0.0430    63.6396     0.2039     0.1989     2.3451    51.8140    12.3869    49.3855
  278.5000    97.4548     7.9613     0.0354    63.4880     0.2033     0.2067     2.3470    52.5747     9.2717    50.1139
  279.0000    96.0225     7.9612     0.0248    65.7385     0.2106     0.1656     2.4085    50.1446     9.5412    48.4503
  279.5000    96.9962     7.9610     0.0203    70.0915     0.2208     0.1400     2.4432    45.2367    12.8629    43.9680
