~VERSION INFORMATION
 VERS.                2.0:   CWLS LOG ASCII STANDARD - VERSION 2.0
 WRAP.                 NO:   ONE LINE PER DEPTH STEP
~WELL INFORMATION
#MNEM.UNIT      DATA TYPE    INFORMATION
#----------   ------------   ------------------------------
 STRT.F           12.0000:   START DEPTH
 STOP.F          449.0000:   STOP DEPTH
 STEP.F            0.5000:   STEP LENGTH
 NULL.          -999.2500:   NO VALUE
 COMP. LAWRENCE-ALLISON &AS:   COMPANY
 WELL. NPR 3 #58-66SX3LI1:   WELL
 FLD .            WALDCAT:   FIELD
 LOC .       S3 T38N R78W:   LOCATION
 CNTY.            NATRONA:   COUNTY
 STAT.            WYOMING:   STATE
 CTRY. UNITED STATES OF AMERICA:   COUNTRY
 SRVC.      Dresser Atlas:   SERVICE COMPANY
 DATE.        11-JAN-1985:   LOGDATE
 API .       490251100100:   API NUMBER
~CURVE INFORMATION
#MNEM.UNIT       API CODE    CURVE DESCRIPTION
#----------   ------------   ------------------------------
 DEPT.F                  :   
 DT  .US/F   60 520 00 00:   INTERVAL TRANSIT TIME
 CALD.IN     45 280 60 00:   CALIPER FROM DENSITY LOG
 CORR.G/C3   45 356 01 00:   DENSITY CORRECTION
 GRD .GAPI   45 310 01 00:   GAMMA RAY FROM DENSITY LOG
 NPHI.DEC    42 890 03 00:   NEUTRON POROSITY SANDSTONE
 DPHI.DEC    45 890 12 00:   DENSITY POROSITY SANDSTONE
 RHOB.G/C3   45 350 01 00:   BULK DENSITY
 RD  .OHMM   11 220 10 00:   RESISTIVITY DEEP
 RMLL.OHMM   11 270 04 00:   MICRO LATEROLOG
 RS  .OHMM   11 220 09 00:   RESISTIVITY SHALLOW
~PARAMETER INFORMATION
#MNEM.UNIT          VALUE    DESCRIPTION
#----------   ------------   ------------------------------
 PD  .                 GL:   PERMANENT DATUM
 EPD .F              5184:   ELEVATION PERMANENT DATUM
 LMF .                 GL:   LOG MEASURED FROM
 DMF .                 GL:   DRILLING MEASURED FROM
 EGL .F              5184:   GROUND LEVEL
 DATE.        11-JAN-1985:   RUN DATE
 RUN .                  1:   RUN NUMBER
 DD  .F               451:   DEPTH DRILLER
 DL  .F               451:   DEPTH LOGGER
 BLI .F               442:   BOTTOM LOG INTERVAL
 TLI .F                20:   TOP LOG INTERVAL
 CS  .IN            8.625:   CASING SIZE
 CBD .F                20:   CASING BOTTOM DRILLER
 CBL .F                20:   CASING BOTTOM LOGGER
 BS  .IN            7.875:   BIT SIZE
 BSD .F               451:   BIT SIZE AT DEPTH
 DFT .          WATER-KCL:   DRILLING FLUID TYPE
 MSS .           MUD TANK:   MUD SAMPLE SOURCE
 RMS .OHMM           0.14:   RESISTIVITY MUD SAMPLE
 MST .F                90:   MUD SAMPLE TEMPERATURE
 RMF .OHMM           0.10:   RESISTIVITY MUD FILTRATE SAMPLE
 MFST.F                90:   MUD FILTRATE SAMPLE TEMPERATURE
 RMC .OHMM           0.17:   RESISTIVITY MUD CAKE
 MCST.F                90:   MUD CAKE SAMPLE TEMPERATURE
 MFSS.               CALC:   MUD FILTRATE SAMPLE SOURCE
 MCSS.               CALC:   MUD CAKE SAMPLE SOURCE
 TCS .HRS               7:   TIME CURCULATED STOPPED
 MRT .F               100:   MAXIMUM RECORDED TEMPERATURE
 LUN .               6270:   LOGGING UNIT NUMBER
 LUL .                 FM:   LOGGING UNIT LOCATION
 ENGI.          E. GOVETT:   RECORDING ENGINEER
 WITN.         MR. GROOMS:   WITNESSED BY
 CLNT.            A2DTECH:   CLIENT CODE
 ORIG.           5" PRINT:   ORIGIN OF DATA
 UWI .       490251100100:   UNIQUE WELL ID
 DICO. A2D Technologies, Inc.:   DIGITIZING COMPANY
~OTHER INFORMATION
~A   DEPT       DT       CALD       CORR        GRD         NPHI     DPHI       RHOB         RD       RMLL         RS   
# ...
   45.5000   117.6775     8.3786     0.0317   115.7024     0.3153     0.1425     2.4459    78.4557    12.6138     8.8507
   46.0000   118.3462     8.3633     0.0483   115.0989     0.3129     0.1477     2.4330    77.9882    12.5335     8.8568
   46.5000   118.9397     8.3479     0.0559   114.7958     0.2918     0.1495     2.4315    78.0477    12.3722     8.8641
   47.0000   119.2346     8.3176     0.0438   114.9431     0.2836     0.1489     2.4323    78.1048    12.2086     8.8701
   47.5000   118.6993     8.3173     0.0332   113.4381     0.2809     0.1483     2.4345    78.1657    11.8858     8.8761
   48.0000   117.3394     8.3320     0.0242   112.3842     0.2816     0.1466     2.4398    78.2358    11.5694     8.8821
   48.5000   116.3552     8.3468     0.0181   114.3333     0.2834     0.1439     2.4465    79.9915    11.4957     8.9498
   49.0000   116.1241     8.3615     0.0227   111.4769     0.2834     0.1363     2.4541    82.8280    11.8293     9.0806
   49.5000   116.5655     8.3612     0.0408   107.8705     0.2816     0.1306     2.4691    83.4517    11.9201     9.2132
   50.0000   116.7853     8.3458     0.0559   106.2167     0.2861     0.1231     2.4781    79.5758    11.8463     9.4127
   50.5000   116.2499     8.3155     0.0544   105.4640     0.2879     0.1201     2.4811    75.8653    11.9375     9.6832
   51.0000   114.9652     8.3001     0.0468   105.0118     0.2858     0.1213     2.4766    74.8639    12.5414     9.9616
   51.5000   112.7789     8.2848     0.0241   104.8602     0.2846     0.1316     2.4600    73.8897    14.0210    10.1850
   52.0000   111.1184     8.2845     0.0164   104.1081     0.2919     0.1389     2.4501    73.4354    14.4252    10.2565
   52.5000   110.1342     8.3143     0.0362   103.6559     0.2954     0.1380     2.4493    72.4936    14.0412    10.0527
   53.0000   110.3540     8.3441     0.0467   104.7055     0.2990     0.1335     2.4599    72.0467    13.1112     9.9885
   53.5000   110.7202     8.3588     0.0377   106.6561     0.2849     0.1332     2.4606    71.6049    12.5866     9.8596
   54.0000   111.0883     8.3584     0.0163   107.7237     0.2698     0.1335     2.4598    70.6296    12.6832     9.7967
   54.5000   111.3832     8.3431     0.0119   107.4037     0.2822     0.1329     2.4598    69.6685    12.6923     9.8050
   55.0000   111.6744     8.3428     0.0225   106.5014     0.3003     0.1309     2.4635    67.9111    12.7015     9.7423
   55.5000   111.8941     8.3759     0.0346   106.8063     0.3033     0.1267     2.4690    66.5645    12.8880     9.7506
   56.0000   111.9617     8.3459     0.0315   107.0992     0.3085     0.1252     2.4748    65.6983    12.9976     9.6898
   56.5000   111.6518     8.3308     0.0149   104.8452     0.3112     0.1276     2.4673    64.8310    12.7312     9.5633
   57.0000   111.5691     8.3008    -0.0047   103.4925     0.3124     0.1421     2.4575    63.1187    12.2219     9.5698
   57.5000   112.5383     8.2556    -0.0078   103.1904     0.3088     0.1552     2.4363    62.2854    11.7329     9.4463
   58.0000   115.4609     8.2256     0.0118   104.3902     0.2882     0.1639     2.4008    61.0620    11.3417     9.3229
   58.5000   116.5804     8.2406     0.0345   106.0405     0.2834     0.1660     2.4000    60.2675    10.9636     9.2649
   59.0000   115.6713     8.3027     0.0527   106.7899     0.2843     0.1615     2.4061    59.4832    10.5250     9.2057
   59.5000   113.1093     8.3308     0.0571   105.5869     0.2931     0.1507     2.4204    58.6788    10.1741     9.0854
   60.0000   110.5473     8.3459     0.0420   107.0870     0.2991     0.1356     2.4378    57.9452     9.8350     9.0289
   60.5000   109.5631     8.3609     0.0072   113.3538     0.2972     0.1290     2.4551    57.5889     9.3763     8.9728
   61.0000   109.4823     8.3609    -0.0003   115.4923     0.2940     0.1254     2.4778    57.6439     8.8751     8.9804
   61.5000   109.9237     8.3609     0.0057   113.0885     0.2946     0.1181     2.4876    57.6878     8.2208     9.0488
   62.0000   110.1415     8.3609     0.0374   106.6066     0.3069     0.1086     2.4981    58.5376     7.5302     9.1199
   62.5000   110.2110     8.3459     0.0751   105.5782     0.3012     0.1049     2.5087    59.8130     7.1295     9.3800
   63.0000   110.0514     8.3459     0.0661   107.6786     0.2943     0.1046     2.5094    60.6941     6.9867     9.6510
   63.5000   109.2925     8.3308     0.0328   109.1787     0.2975     0.1074     2.5079    61.5881     7.5989     9.8599
   64.0000   107.7824     8.3008     0.0071   110.9787     0.3118     0.1110     2.5026    62.0637     7.9821     9.8666
   64.5000   107.4743     8.2857     0.0132   112.0284     0.3193     0.1231     2.4829    61.6818     8.1555     9.8733
   65.0000   108.5938     8.2556     0.0464   113.0780     0.3208     0.1331     2.4572    60.4590     7.7752     9.7442
   65.5000   110.3143     8.2878     0.0841   113.6772     0.3187     0.1413     2.4308    60.0259     7.6206     9.6820
   66.0000   110.0814     8.3470     0.1309   112.7746     0.3136     0.1506     2.4285    58.8958     7.7864     9.6218
   66.5000   107.5945     8.3868     0.1279   111.5720     0.3097     0.1490     2.4398    58.5337     8.0109     9.6299
   67.0000   105.1828     8.4267     0.0962   110.1772     0.3076     0.1380     2.4647    58.5895     8.0724     9.7033
   67.5000   103.6726     8.4060     0.0463   107.6650     0.3051     0.1229     2.4912    59.0420     7.4836     9.7099
   68.0000   103.3462     8.3759     0.0100   105.5615     0.2955     0.1154     2.4904    59.9117     5.7978     9.7931
   68.5000   104.4288     8.3609     0.0221   104.6592     0.2952     0.1157     2.4904    60.3744     6.0913     9.9285
   69.0000   105.3042     8.3459     0.0328   104.3571     0.2989     0.1182     2.4841    60.8406     7.1978    10.0041
   69.5000   105.5972     8.3308     0.0372   106.0074     0.3100     0.1215     2.4752    60.8870     8.3884    10.0109
   70.0000   105.6649     8.3158     0.0372   109.4594     0.3109     0.1242     2.4692    60.9335     8.6287    10.0177
   70.5000   105.4319     8.3158     0.0341   112.6108     0.3088     0.1276     2.4631    60.5588     8.2849    10.0244
   71.0000   105.1239     8.3158     0.0341   112.9101     0.3000     0.1321     2.4586    60.6050     8.1190    10.0312
   71.5000   104.7407     8.3158     0.0371   111.4069     0.2903     0.1352     2.4586    60.2324     8.2969    10.0380
   72.0000   104.2824     8.3158     0.0416   107.6514     0.2855     0.1349     2.4616    60.2898     8.4771    10.0448
   72.5000   103.7489     8.3158     0.0446   106.1485     0.2767     0.1328     2.4646    60.7554     8.3583    10.1916
   73.0000   103.2906     8.3158     0.0431   104.7957     0.2719     0.1307     2.4676    61.6503     8.1438    10.4882
   73.5000   102.7572     8.3308     0.0340   102.1457     0.2674     0.1298     2.4706    62.9935     8.4384    10.7328
   74.0000   102.2989     8.3308     0.0217   100.1379     0.2698     0.1289     2.4751    64.8136     8.6816    11.0976
   74.5000   101.9157     8.3308     0.0083   101.1876     0.2737     0.1268     2.4781    66.2258     8.8702    11.2598
   75.0000   101.4574     8.3158     0.0038   102.2372     0.2822     0.1226     2.4811    67.2013     9.0630    11.4243
   75.5000   101.0742     8.3153     0.0234   103.1364     0.2843     0.1199     2.4811    68.1912     9.1960    11.5912
   76.0000   100.6910     8.3008     0.0521   107.0389     0.2800     0.1200     2.4781    68.7342     9.3309    11.6795
   76.5000   100.3830     8.2942     0.0581   108.2387     0.2707     0.1206     2.4750    69.7317     9.4026    11.8502
   77.0000   100.0749     8.2857     0.0354   104.1829     0.2653     0.1221     2.4720    70.2820     9.5405    12.0233
   77.5000    99.6166     8.2857     0.0007    97.8752     0.2622     0.1246     2.4735    71.3173     9.6138    12.2837
   78.0000    98.9329     8.2857     0.0188    95.3213     0.2598     0.1261     2.4788    72.8711     9.6208    12.5496
   78.5000    97.6481     8.2857     0.0248    94.5688     0.2592     0.1240     2.4833    74.4587     9.6378    12.9156
