~VERSION INFORMATION
 VERS.                2.0:   CWLS LOG ASCII STANDARD - VERSION 2.0
 WRAP.                 NO:   ONE LINE PER DEPTH STEP
~WELL INFORMATION
#MNEM.UNIT      DATA TYPE    INFORMATION
#----------   ------------   ------------------------------
 STRT.F           12.0000:   START DEPTH
 STOP.F          449.0000:   STOP DEPTH
 STEP.F            0.5000:   STEP LENGTH
 NULL.          -999.2500:   NO VALUE
 COMP. LAWRENCE-ALLISON &AS:   COMPANY
 WELL. NPR 3 #58-66SX3LI1:   WELL
 FLD .            WALDCAT:   FIELD
 LOC .       S3 T38N R78W:   LOCATION
 CNTY.            NATRONA:   COUNTY
 STAT.            WYOMING:   STATE
 CTRY. UNITED STATES OF AMERICA:   COUNTRY
 SRVC.      Dresser Atlas:   SERVICE COMPANY
 DATE.        11-JAN-1985:   LOGDATE
 API .       490251100100:   API NUMBER
~CURVE INFORMATION
#MNEM.UNIT       API CODE    CURVE DESCRIPTION
#----------   ------------   ------------------------------
 DEPT.F                  :   
 DT  .US/F   60 520 00 00:   INTERVAL TRANSIT TIME
 CALD.IN     45 280 60 00:   CALIPER FROM DENSITY LOG
 CORR.G/C3   45 356 01 00:   DENSITY CORRECTION
 GRD .GAPI   45 310 01 00:   GAMMA RAY FROM DENSITY LOG
 NPHI.DEC    42 890 03 00:   NEUTRON POROSITY SANDSTONE
 DPHI.DEC    45 890 12 00:   DENSITY POROSITY SANDSTONE
 RHOB.G/C3   45 350 01 00:   BULK DENSITY
 RD  .OHMM   11 220 10 00:   RESISTIVITY DEEP
 RMLL.OHMM   11 270 04 00:   MICRO LATEROLOG
 RS  .OHMM   11 220 09 00:   RESISTIVITY SHALLOW
~PARAMETER INFORMATION
#MNEM.UNIT          VALUE    DESCRIPTION
#----------   ------------   ------------------------------
 PD  .                 GL:   PERMANENT DATUM
 EPD .F              5184:   ELEVATION PERMANENT DATUM
 LMF .                 GL:   LOG MEASURED FROM
 DMF .                 GL:   DRILLING MEASURED FROM
 EGL .F              5184:   GROUND LEVEL
 DATE.        11-JAN-1985:   RUN DATE
 RUN .                  1:   RUN NUMBER
 DD  .F               451:   DEPTH DRILLER
 DL  .F               451:   DEPTH LOGGER
 BLI .F               442:   BOTTOM LOG INTERVAL
 TLI .F                20:   TOP LOG INTERVAL
 CS  .IN            8.625:   CASING SIZE
 CBD .F                20:   CASING BOTTOM DRILLER
 CBL .F                20:   CASING BOTTOM LOGGER
 BS  .IN            7.875:   BIT SIZE
 BSD .F               451:   BIT SIZE AT DEPTH
 DFT .          WATER-KCL:   DRILLING FLUID TYPE
 MSS .           MUD TANK:   MUD SAMPLE SOURCE
 RMS .OHMM           0.14:   RESISTIVITY MUD SAMPLE
 MST .F                90:   MUD SAMPLE TEMPERATURE
 RMF .OHMM           0.10:   RESISTIVITY MUD FILTRATE SAMPLE
 MFST.F                90:   MUD FILTRATE SAMPLE TEMPERATURE
 RMC .OHMM           0.17:   RESISTIVITY MUD CAKE
 MCST.F                90:   MUD CAKE SAMPLE TEMPERATURE
 MFSS.               CALC:   MUD FILTRATE SAMPLE SOURCE
 MCSS.               CALC:   MUD CAKE SAMPLE SOURCE
 TCS .HRS               7:   TIME CURCULATED STOPPED
 MRT .F               100:   MAXIMUM RECORDED TEMPERATURE
 LUN .               6270:   LOGGING UNIT NUMBER
 LUL .                 FM:   LOGGING UNIT LOCATION
 ENGI.          E. GOVETT:   RECORDING ENGINEER
 WITN.         MR. GROOMS:   WITNESSED BY
 CLNT.            A2DTECH:   CLIENT CODE
 ORIG.           5" PRINT:   ORIGIN OF DATA
 UWI .       490251100100:   UNIQUE WELL ID
 DICO. A2D Technologies, Inc.:   DIGITIZING COMPANY
~OTHER INFORMATION
~A   DEPT       DT       CALD       CORR        GRD         NPHI     DPHI       RHOB         RD       RMLL         RS   
# ...
  213.0000   108.0586     8.1236     0.0251   119.9518     0.2730     0.1167     2.4834    15.5153     8.5412     9.1641
  213.5000   108.1286     8.1232     0.0324   119.7988     0.2755     0.1170     2.4834    15.5270     8.5331     9.1716
  214.0000   108.3489     8.1227     0.0369   119.4949     0.2821     0.1177     2.4826    15.5387     8.5015     9.1791
  214.5000   108.5692     8.1222     0.0369   118.2909     0.2794     0.1186     2.4804    15.5505     8.4700     9.1866
  215.0000   108.6416     8.1218     0.0307   116.4863     0.2728     0.1210     2.4758    15.5620     8.4384     9.1941
  215.5000   108.9389     8.1214     0.0217   113.7807     0.2725     0.1262     2.4630    15.3593     8.4039     9.1380
  216.0000   109.3865     8.1208     0.0262   113.9479     0.2810     0.1349     2.4567    15.1593     8.2922     9.0201
  216.5000   109.8341     8.1205     0.0594   115.8764     0.3051     0.1365     2.4524    15.0659     8.1267     8.9653
  217.0000   110.1220     8.1200     0.0746   117.9757     0.3018     0.1377     2.4486    14.9731     7.9657     8.9108
  217.5000   110.1919     8.1195     0.0730   119.7747     0.2888     0.1386     2.4479    14.7781     7.8067     8.9182
  218.0000   110.0361     8.1190     0.0729   120.0721     0.2783     0.1380     2.4486    14.6870     7.6508     8.9256
  218.5000   109.8794     8.1337     0.0623   115.2638     0.2771     0.1335     2.4532    14.7008     7.5503     8.9345
  219.0000   109.8742     8.1360     0.0456   113.6093     0.2840     0.1272     2.4648    14.6075     7.8251     8.9418
  219.5000   109.7937     8.1478     0.0426   114.9578     0.2961     0.1245     2.4728    14.5203     8.1658     8.9491
  220.0000   109.5630     8.1473     0.0517   118.8589     0.2974     0.1252     2.4743    14.4281     8.6292     8.9564
  220.5000   109.2570     8.1562     0.0592   121.8583     0.2984     0.1282     2.4736    14.4417     8.8770     8.7797
  221.0000   109.2517     8.1667     0.0545   121.2549     0.2997     0.1306     2.4712    14.2536     8.9442     8.7869
  221.5000   109.6976     8.1761     0.0334   118.5493     0.3092     0.1328     2.4645    14.0679     8.8866     8.6135
  222.0000   111.7977     8.1756     0.0123   120.0480     0.3312     0.1490     2.4517    13.3192     8.8306     8.3276
  222.5000   114.5744     8.1751     0.0092   126.5009     0.3243     0.1772     2.4184    11.7475     8.5367     7.4615
  223.0000   116.4488     8.1747     0.0455   129.0506     0.3016     0.1950     2.3644     9.4684     7.9154     6.5031
  223.5000   117.9474     8.1813     0.0575   129.7993     0.2986     0.1941     2.3489     8.7380     6.3460     5.9902
  224.0000   118.6953     8.1889     0.0424   126.3422     0.2962     0.1680     2.3550     8.8161     4.2789     6.1632
  224.5000   116.7339     8.2035     0.0393   123.1111     0.2956     0.1549     2.4079     9.9949     4.0502     6.3853
  225.0000   113.6460     8.2030     0.0483   119.4290     0.2974     0.1501     2.4260    11.4895     4.6233     7.0401
  225.5000   112.7385     8.2272     0.0544   116.2730     0.3133     0.1465     2.4335    12.3233     6.4951     7.7183
  226.0000   112.8836     8.2471     0.0543   114.6185     0.3305     0.1508     2.4350    12.5916     7.1113     7.9312
  226.5000   113.9310     8.2467     0.0362   115.3864     0.3476     0.1610     2.4260    12.3418     7.4188     7.4830
  227.0000   117.0837     8.2463     0.0210   118.5160     0.3784     0.1713     2.4094     9.7582     7.6883     6.5472
  227.5000   119.5596     8.2609     0.0255   120.9156     0.3960     0.1904     2.3686     8.0431     7.8499     5.8258
  228.0000   121.7349     8.2605     0.0482   123.1650     0.3476     0.1908     2.3557     7.2544     6.6991     5.2199
  228.5000   120.2259     8.2599     0.0798   121.8108     0.3189     0.1666     2.3610     7.1092     4.5800     4.9420
  229.0000   116.8372     8.2595     0.0995   116.4018     0.3141     0.1436     2.4169     8.1173     3.5964     5.7599
  229.5000   113.5237     8.2591     0.1040   114.5972     0.3223     0.1304     2.4494     9.5934     3.4762     6.6196
  230.0000   111.4884     8.2576     0.0903   113.5433     0.3329     0.1262     2.4637    11.6566     3.9674     7.5031
  230.5000   110.5057     8.2342     0.0692   115.6426     0.3323     0.1247     2.4698    12.3304     6.2701     8.0468
  231.0000   110.2749     8.2276     0.0540   118.0120     0.3299     0.1232     2.4728    12.5167     6.8649     8.1656
  231.5000   110.2697     8.2122     0.0389   120.4417     0.3238     0.1202     2.4774    12.5216     7.2103     8.1722
  232.0000   110.1141     8.1967     0.0419   116.0838     0.3178     0.1166     2.4841    12.4442     7.5731     8.1789
  232.5000   109.4321     8.1935     0.0449   113.5284     0.3121     0.1157     2.4864    12.4559     7.8447     8.1856
  233.0000   108.3743     8.1807     0.0327   115.5375     0.2985     0.1166     2.4849    12.6392     8.0143     8.2491
  233.5000   107.9179     8.1803     0.0176   119.3779     0.2979     0.1182     2.4833    12.7367     8.1876     8.2559
  234.0000   108.0630     8.1798     0.0055   119.9764     0.2998     0.1215     2.4728    12.8349     8.2495     8.2628
  234.5000   109.6368     8.1644     0.0070   119.9728     0.3432     0.1258     2.4615    12.8445     8.1976     7.9656
  235.0000   111.9624     8.1790     0.0266   120.2703     0.3547     0.1499     2.4328    10.7347     8.0176     7.2087
  235.5000   115.4158     8.1785     0.0447   119.6661     0.3544     0.1584     2.3973     8.4876     7.4163     6.5944
  236.0000   116.7679     8.1780     0.0356   115.1588     0.3513     0.1705     2.4003     7.6024     6.2266     5.8274
  236.5000   116.8339     8.1775     0.0310   113.6544     0.3363     0.1615     2.4282     7.5020     5.1323     5.2213
  237.0000   114.6210     8.1692     0.0385   114.8528     0.3143     0.1452     2.4517     7.7738     4.0301     5.5997
  237.5000   112.6504     8.1617     0.0355   118.9033     0.2895     0.1343     2.4637     8.5131     3.7110     6.1740
  238.0000   110.9965     8.1612     0.0204   119.8021     0.2814     0.1277     2.4705     9.7185     4.1484     7.0465
  238.5000   109.7910     8.1457     0.0143   118.8976     0.2811     0.1256     2.4736    10.7913     5.9916     7.7156
  239.0000   108.7163     8.1302     0.0203   118.7447     0.2980     0.1241     2.4758    11.5776     6.0369     7.9385
  239.5000   107.8283     8.1298     0.0369   117.3003     0.3025     0.1224     2.4781    12.2561     6.0406     8.1678
  240.0000   106.7960     8.1446     0.0429   109.8794     0.2917     0.1212     2.4819    12.8739     6.6597     8.5799
  240.5000   106.3070     8.1589     0.0383   107.3240     0.2805     0.1197     2.4856    13.3276     7.3932     8.7065
  241.0000   105.6967     8.1585     0.0202   108.2221     0.2878     0.1160     2.4879    13.7125     7.6055     8.8962
  241.5000   105.2765     8.1731     0.0126   111.8428     0.3008     0.1143     2.4879    14.0111     7.6631     9.1532
  242.0000   105.2713     8.1877     0.0141   114.2217     0.3041     0.1149     2.4856    14.1192     7.7211     9.5515
  242.5000   105.2669     8.1872     0.0186   114.0687     0.3011     0.1158     2.4841    14.2281     7.7259     9.7570
  243.0000   105.1856     8.1867     0.0261   112.5644     0.2878     0.1165     2.4758    14.2387     7.8385     9.6975
  243.5000   105.1052     8.1863     0.0353   110.9099     0.2804     0.1189     2.4630    14.1510     7.9076     9.5082
  244.0000   105.0248     8.1859     0.0381   109.2547     0.2836     0.1268     2.4553    14.1617     8.1257     9.4484
  244.5000   104.9451     8.1854     0.0381   108.6513     0.2911     0.1355     2.4486    14.1723     8.2441     9.5237
  245.0000   104.8639     8.1849     0.0366   108.6484     0.2918     0.1392     2.4471    14.1830     8.3065     9.6642
  245.5000   104.6331     8.1845     0.0427   110.2972     0.2944     0.1398     2.4471    14.2923     8.2542     9.7392
  246.0000   104.4023     8.1841     0.0501   112.7768     0.3075     0.1371     2.4503    14.4025     8.2010     9.8829
