~VERSION INFORMATION
 VERS.                2.0:   CWLS LOG ASCII STANDARD - VERSION 2.0
 WRAP.                 NO:   ONE LINE PER DEPTH STEP
~WELL INFORMATION
#MNEM.UNIT      DATA TYPE    INFORMATION
#----------   ------------   ------------------------------
 STRT.F           12.0000:   START DEPTH
 STOP.F          449.0000:   STOP DEPTH
 STEP.F            0.5000:   STEP LENGTH
 NULL.          -999.2500:   NO VALUE
 COMP. LAWRENCE-ALLISON &AS:   COMPANY
 WELL. NPR 3 #58-66SX3LI1:   WELL
 FLD .            WALDCAT:   FIELD
 LOC .       S3 T38N R78W:   LOCATION
 CNTY.            NATRONA:   COUNTY
 STAT.            WYOMING:   STATE
 CTRY. UNITED STATES OF AMERICA:   COUNTRY
 SRVC.      Dresser Atlas:   SERVICE COMPANY
 DATE.        11-JAN-1985:   LOGDATE
 API .       490251100100:   API NUMBER
~CURVE INFORMATION
#MNEM.UNIT       API CODE    CURVE DESCRIPTION
#----------   ------------   ------------------------------
 DEPT.F                  :   
 DT  .US/F   60 520 00 00:   INTERVAL TRANSIT TIME
 CALD.IN     45 280 60 00:   CALIPER FROM DENSITY LOG
 CORR.G/C3   45 356 01 00:   DENSITY CORRECTION
 GRD .GAPI   45 310 01 00:   GAMMA RAY FROM DENSITY LOG
 NPHI.DEC    42 890 03 00:   NEUTRON POROSITY SANDSTONE
 DPHI.DEC    45 890 12 00:   DENSITY POROSITY SANDSTONE
 RHOB.G/C3   45 350 01 00:   BULK DENSITY
 RD  .OHMM   11 220 10 00:   RESISTIVITY DEEP
 RMLL.OHMM   11 270 04 00:   MICRO LATEROLOG
 RS  .OHMM   11 220 09 00:   RESISTIVITY SHALLOW
~PARAMETER INFORMATION
#MNEM.UNIT          VALUE    DESCRIPTION
#----------   ------------   ------------------------------
 PD  .                 GL:   PERMANENT DATUM
 EPD .F              5184:   ELEVATION PERMANENT DATUM
 LMF .                 GL:   LOG MEASURED FROM
 DMF .                 GL:   DRILLING MEASURED FROM
 EGL .F              5184:   GROUND LEVEL
 DATE.        11-JAN-1985:   RUN DATE
 RUN .                  1:   RUN NUMBER
 DD  .F               451:   DEPTH DRILLER
 DL  .F               451:   DEPTH LOGGER
 BLI .F               442:   BOTTOM LOG INTERVAL
 TLI .F                20:   TOP LOG INTERVAL
 CS  .IN            8.625:   CASING SIZE
 CBD .F                20:   CASING BOTTOM DRILLER
 CBL .F                20:   CASING BOTTOM LOGGER
 BS  .IN            7.875:   BIT SIZE
 BSD .F               451:   BIT SIZE AT DEPTH
 DFT .          WATER-KCL:   DRILLING FLUID TYPE
 MSS .           MUD TANK:   MUD SAMPLE SOURCE
 RMS .OHMM           0.14:   RESISTIVITY MUD SAMPLE
 MST .F                90:   MUD SAMPLE TEMPERATURE
 RMF .OHMM           0.10:   RESISTIVITY MUD FILTRATE SAMPLE
 MFST.F                90:   MUD FILTRATE SAMPLE TEMPERATURE
 RMC .OHMM           0.17:   RESISTIVITY MUD CAKE
 MCST.F                90:   MUD CAKE SAMPLE TEMPERATURE
 MFSS.               CALC:   MUD FILTRATE SAMPLE SOURCE
 MCSS.               CALC:   MUD CAKE SAMPLE SOURCE
 TCS .HRS               7:   TIME CURCULATED STOPPED
 MRT .F               100:   MAXIMUM RECORDED TEMPERATURE
 LUN .               6270:   LOGGING UNIT NUMBER
 LUL .                 FM:   LOGGING UNIT LOCATION
 ENGI.          E. GOVETT:   RECORDING ENGINEER
 WITN.         MR. GROOMS:   WITNESSED BY
 CLNT.            A2DTECH:   CLIENT CODE
 ORIG.           5" PRINT:   ORIGIN OF DATA
 UWI .       490251100100:   UNIQUE WELL ID
 DICO. A2D Technologies, Inc.:   DIGITIZING COMPANY
~OTHER INFORMATION
~A   DEPT       DT       CALD       CORR        GRD         NPHI     DPHI       RHOB         RD       RMLL         RS   
# ...
  280.0000   100.1504     7.9609     0.0187    72.3423     0.2353     0.1575     2.4349    40.8091    15.8481    39.8425
  280.5000   108.2216     7.9307     0.0248    73.2418     0.2508     0.1838     2.3615    37.5883    12.1383    35.5885
  281.0000   114.1879     7.9004     0.0338    73.5403     0.2505     0.2044     2.3253    35.8424     9.4919    33.7007
  281.5000   114.7257     7.8702     0.0504    75.0404     0.2508     0.2261     2.3012    34.8957     7.8988    32.8080
  282.0000   111.5632     7.8551     0.0776    79.0930     0.2523     0.2364     2.2800    34.2102     7.2758    32.1541
  282.5000   106.5970     7.8699     0.0791    80.1427     0.2577     0.2325     2.2802    33.7794     7.0821    31.5260
  283.0000   101.7813     7.9299     0.0609    78.4893     0.2648     0.2138     2.3283    33.1158     8.0876    30.9039
  283.5000   100.4242     7.9611     0.0443    73.2326     0.2746     0.2024     2.3457    32.0184     8.8579    30.0853
  284.0000   100.2701     8.0048     0.0322    71.5795     0.2798     0.1924     2.3608    30.7436     9.3067    29.0866
  284.5000   101.3942     8.0197     0.0367    71.8163     0.2837     0.1906     2.3589    29.3156     9.2512    27.9272
  285.0000   102.2928     8.0195     0.0397    77.1319     0.2825     0.1951     2.3479    28.3441     8.8831    26.8141
  285.5000   102.2139     8.0194     0.0367    80.4338     0.2779     0.2009     2.3456    28.1685     8.5890    25.7430
  286.0000   101.0071     8.0042     0.0306    80.8829     0.2698     0.1939     2.3479    28.3981     8.4204    25.2373
  286.5000    99.0486     7.9890     0.0216    79.6799     0.2622     0.1885     2.3584    28.6228     8.9242    25.2891
  287.0000    96.9396     7.9889     0.0110    79.5287     0.2486     0.1834     2.3682    28.6501     9.7354    25.8135
  287.5000    95.4321     7.9737     0.0079    81.9293     0.2347     0.1807     2.3741    28.4793    10.6887    25.4797
  288.0000    94.9773     7.9735     0.0155    84.0300     0.2396     0.1785     2.3795    27.9198    11.2303    24.9769
  288.5000    95.2743     7.9669     0.0321    85.3799     0.2483     0.1771     2.3825    27.3422    11.7179    24.3153
  289.0000    95.8721     7.9582     0.0441    79.8226     0.2577     0.1768     2.3840    26.6547    11.9752    23.8355
  289.5000    96.3947     7.9580     0.0517    76.9684     0.2592     0.1774     2.3848    26.1311    11.7402    23.3651
  290.0000    96.8421     7.9579     0.0592    76.6567     0.2538     0.1787     2.3840    25.6178    11.3514    23.0630
  290.5000    97.2181     7.9577     0.0637    80.8691     0.2468     0.1816     2.3787    25.4590    10.9755    22.7601
  291.0000    97.6767     7.9576     0.0607    84.0208     0.2447     0.1798     2.3741    25.4893    10.9097    22.7833
  291.5000    98.1316     7.9574     0.0546    84.9207     0.2489     0.1777     2.3779    25.5135    11.0728    22.8018
  292.0000    98.7060     7.9573     0.0456    84.3183     0.2610     0.1765     2.3832    25.7154    11.5535    22.8206
  292.5000    99.1544     7.9571     0.0350    79.3616     0.2616     0.1781     2.3824    25.9189    12.0624    22.8396
  293.0000    99.5257     7.9570     0.0214    77.1079     0.2607     0.1823     2.3794    26.3057    12.5067    22.8622
  293.5000    99.5220     7.9568     0.0122    76.6561     0.2607     0.1862     2.3665    26.5138    12.7691    23.0395
  294.0000    99.5182     7.9567     0.0228    79.8078     0.2595     0.1887     2.3642    26.7239    12.5184    23.2183
  294.5000    99.6649     7.9716     0.0394    84.9111     0.2517     0.1871     2.3672    26.9358    11.9374    23.2372
  295.0000   100.0371     7.9714     0.0334    85.5107     0.2402     0.1854     2.3680    27.1546    11.6195    23.4175
  295.5000   100.6349     7.9713     0.0288    84.4579     0.2366     0.1872     2.3657    27.3695    11.8776    23.4365
  296.0000   101.3079     7.9711     0.0303    82.8048     0.2375     0.1902     2.3596    27.3955    12.4794    23.4556
  296.5000   101.9057     7.9710     0.0318    81.4517     0.2396     0.1909     2.3611    27.6123    12.1500    23.6376
  297.0000   101.8268     7.9736     0.0333    81.3001     0.2456     0.1888     2.3641    27.6386    11.8292    23.6568
  297.5000   101.1464     7.9857     0.0333    81.2987     0.2622     0.1885     2.3649    27.6649    11.5170    23.6760
  298.0000   100.6163     7.9753     0.0348    81.8979     0.2653     0.1879     2.3634    27.6912    11.3694    23.6954
  298.5000   100.4623     7.9704     0.0454    82.6472     0.2592     0.1873     2.3626    27.5196    11.7136    23.7146
  299.0000   100.4585     7.9853     0.0544    82.1950     0.2589     0.1860     2.3663    26.9854    12.0403    23.3808
  299.5000   100.4548     7.9851     0.0495    81.8933     0.2625     0.1852     2.3671    26.8240    12.1351    22.7925
  300.0000   100.5263     8.0451     0.0267    82.4925     0.2605     0.1885     2.3678    26.2976    11.4947    22.4932
  300.5000   100.5978     8.0298     0.0211    82.4925     0.2517     0.1934     2.3572    26.1409    12.0771    22.3564
  301.0000   100.5940     8.0294     0.0256    82.3423     0.2423     0.1947     2.3527    25.9850    12.3423    22.2249
  301.5000   100.5357     8.0141     0.0286    81.2913     0.2405     0.1935     2.3550    25.6517    12.0165    22.2430
  302.0000   100.2775     8.0138     0.0269    80.9790     0.2514     0.1905     2.3587    25.4988    11.4588    21.9554
  302.5000    99.5379     7.9835     0.0224    81.1411     0.2578     0.1905     2.3602    25.1777    11.4697    21.9733
  303.0000    99.6800     7.9681     0.0179    81.4414     0.2554     0.1947     2.3587    25.0007    12.1346    21.6891
  303.5000    99.6717     7.9678     0.0148    82.6426     0.2517     0.1983     2.3519    24.8218    12.8590    21.6072
  304.0000    99.5843     7.9675     0.0102    83.2432     0.2584     0.2005     2.3466    24.6430    13.5583    21.5215
  304.5000    98.8993     7.9672     0.0162    81.1411     0.2629     0.1978     2.3474    24.4642    13.2002    21.4357
  305.0000    98.4423     7.9669     0.0282    81.4414     0.2651     0.1927     2.3557    24.2854    13.1165    21.3499
  305.5000    98.2111     7.9666     0.0388    83.5435     0.2663     0.1905     2.3602    24.1066    13.1288    21.2641
  306.0000    98.4313     7.9731     0.0463    85.9459     0.2645     0.1918     2.3617    23.9277    13.9836    21.1783
  306.5000    99.3412     7.9811     0.0462    85.4955     0.2524     0.1954     2.3556    23.9592    14.9975    21.0766
  307.0000   100.7583     7.9808     0.0356    81.4414     0.2403     0.2075     2.3413    24.1456    15.4303    21.3875
  307.5000   101.9422     7.9955     0.0205    80.5255     0.2376     0.2138     2.3239    24.6818    15.0200    22.0052
  308.0000   101.6929     8.0102     0.0023    80.3904     0.2488     0.2151     2.3201    25.0384    14.3135    22.1760
  308.5000   101.2377     8.0099    -0.0053    81.1411     0.2494     0.2142     2.3209    25.0634    13.9267    22.1941
  309.0000   100.8535     8.0096     0.0082    81.7417     0.2434     0.2096     2.3269    24.9056    13.8534    21.4574
  309.5000   100.3143     8.0093     0.0235    85.0316     0.2342     0.2024     2.3360    24.0819    14.8606    20.7451
  310.0000    99.3839     8.0090     0.0338    88.1982     0.2295     0.1991     2.3450    22.8017    15.1840    20.3316
  310.5000    95.6839     8.0087     0.0353    89.0991     0.2253     0.1961     2.3519    22.5017    15.5143    20.0688
  311.0000    91.0815     8.0084     0.0262    87.8979     0.2196     0.1922     2.3609    22.8391    15.8519    20.3690
  311.5000    84.5020     8.0081     0.0104    81.2913     0.2121     0.1819     2.3782    25.7158    16.0850    21.2491
  312.0000    76.3514     8.0078    -0.0102    71.8318     0.2078     0.1563     2.4296    30.0789    16.7800    22.6404
  312.5000    71.5239     8.0075    -0.0193    67.6276     0.2097     0.1107     2.4975    35.6865    20.5275    26.5161
  313.0000    69.9882     8.0072    -0.0208    67.3273     0.2136     0.0935     2.5376    41.2941    30.4852    33.8559
