~VERSION INFORMATION
 VERS.                2.0:   CWLS LOG ASCII STANDARD - VERSION 2.0
 WRAP.                 NO:   ONE LINE PER DEPTH STEP
~WELL INFORMATION
#MNEM.UNIT      DATA TYPE    INFORMATION
#----------   ------------   ------------------------------
 STRT.F           12.0000:   START DEPTH
 STOP.F          449.0000:   STOP DEPTH
 STEP.F            0.5000:   STEP LENGTH
 NULL.          -999.2500:   NO VALUE
 COMP. LAWRENCE-ALLISON &AS:   COMPANY
 WELL. NPR 3 #58-66SX3LI1:   WELL
 FLD .            WALDCAT:   FIELD
 LOC .       S3 T38N R78W:   LOCATION
 CNTY.            NATRONA:   COUNTY
 STAT.            WYOMING:   STATE
 CTRY. UNITED STATES OF AMERICA:   COUNTRY
 SRVC.      Dresser Atlas:   SERVICE COMPANY
 DATE.        11-JAN-1985:   LOGDATE
 API .       490251100100:   API NUMBER
~CURVE INFORMATION
#MNEM.UNIT       API CODE    CURVE DESCRIPTION
#----------   ------------   ------------------------------
 DEPT.F                  :   
 DT  .US/F   60 520 00 00:   INTERVAL TRANSIT TIME
 CALD.IN     45 280 60 00:   CALIPER FROM DENSITY LOG
 CORR.G/C3   45 356 01 00:   DENSITY CORRECTION
 GRD .GAPI   45 310 01 00:   GAMMA RAY FROM DENSITY LOG
 NPHI.DEC    42 890 03 00:   NEUTRON POROSITY SANDSTONE
 DPHI.DEC    45 890 12 00:   DENSITY POROSITY SANDSTONE
 RHOB.G/C3   45 350 01 00:   BULK DENSITY
 RD  .OHMM   11 220 10 00:   RESISTIVITY DEEP
 RMLL.OHMM   11 270 04 00:   MICRO LATEROLOG
 RS  .OHMM   11 220 09 00:   RESISTIVITY SHALLOW
~PARAMETER INFORMATION
#MNEM.UNIT          VALUE    DESCRIPTION
#----------   ------------   ------------------------------
 PD  .                 GL:   PERMANENT DATUM
 EPD .F              5184:   ELEVATION PERMANENT DATUM
 LMF .                 GL:   LOG MEASURED FROM
 DMF .                 GL:   DRILLING MEASURED FROM
 EGL .F              5184:   GROUND LEVEL
 DATE.        11-JAN-1985:   RUN DATE
 RUN .                  1:   RUN NUMBER
 DD  .F               451:   DEPTH DRILLER
 DL  .F               451:   DEPTH LOGGER
 BLI .F               442:   BOTTOM LOG INTERVAL
 TLI .F                20:   TOP LOG INTERVAL
 CS  .IN            8.625:   CASING SIZE
 CBD .F                20:   CASING BOTTOM DRILLER
 CBL .F                20:   CASING BOTTOM LOGGER
 BS  .IN            7.875:   BIT SIZE
 BSD .F               451:   BIT SIZE AT DEPTH
 DFT .          WATER-KCL:   DRILLING FLUID TYPE
 MSS .           MUD TANK:   MUD SAMPLE SOURCE
 RMS .OHMM           0.14:   RESISTIVITY MUD SAMPLE
 MST .F                90:   MUD SAMPLE TEMPERATURE
 RMF .OHMM           0.10:   RESISTIVITY MUD FILTRATE SAMPLE
 MFST.F                90:   MUD FILTRATE SAMPLE TEMPERATURE
 RMC .OHMM           0.17:   RESISTIVITY MUD CAKE
 MCST.F                90:   MUD CAKE SAMPLE TEMPERATURE
 MFSS.               CALC:   MUD FILTRATE SAMPLE SOURCE
 MCSS.               CALC:   MUD CAKE SAMPLE SOURCE
 TCS .HRS               7:   TIME CURCULATED STOPPED
 MRT .F               100:   MAXIMUM RECORDED TEMPERATURE
 LUN .               6270:   LOGGING UNIT NUMBER
 LUL .                 FM:   LOGGING UNIT LOCATION
 ENGI.          E. GOVETT:   RECORDING ENGINEER
 WITN.         MR. GROOMS:   WITNESSED BY
 CLNT.            A2DTECH:   CLIENT CODE
 ORIG.           5" PRINT:   ORIGIN OF DATA
 UWI .       490251100100:   UNIQUE WELL ID
 DICO. A2D Technologies, Inc.:   DIGITIZING COMPANY
~OTHER INFORMATION
~A   DEPT       DT       CALD       CORR        GRD         NPHI     DPHI       RHOB         RD       RMLL         RS   
# ...
  313.5000    72.9682     8.0069    -0.0194    67.4775     0.2236     0.0824     2.5444    43.3834    46.2238    34.6193
  314.0000    83.8488     8.0066    -0.0134    75.1351     0.2291     0.0827     2.5467    34.7900    57.3356    32.5331
  314.5000    88.8258     8.0063    -0.0028    84.7447     0.2321     0.0960     2.4318    28.8765    49.6126    26.0545
  315.0000    91.8782     8.0060     0.0092    87.4774     0.2333     0.1404     2.3887    24.1349    31.0032    21.1392
  315.5000    94.4420     8.0057     0.0137    88.3484     0.2357     0.1648     2.3676    21.6194    17.7344    18.4135
  316.0000    96.1833     8.0071     0.0076    84.7447     0.2418     0.1861     2.3646    20.4701    14.3562    17.2804
  316.5000    96.5269     8.0202    -0.0045    82.6426     0.2642     0.1893     2.3646    20.2007    13.6323    17.0535
  317.0000    96.4348     8.0297    -0.0137    82.6426     0.2599     0.1893     2.3630    20.0776    13.2698    17.0709
  317.5000    96.2760     8.0346    -0.0061    83.5435     0.2466     0.1884     2.3608    20.0982    13.0043    17.0848
  318.0000    96.1923     8.0494     0.0074    84.4444     0.2412     0.1894     2.3660    20.1146    12.9242    17.2174
  318.5000    96.2775     8.0553     0.0195    85.3453     0.2458     0.1891     2.3668    20.2710    12.9363    17.3510
  319.0000    96.4856     8.0638     0.0289    85.4955     0.2431     0.1873     2.3645    20.2876    13.0360    17.4856
  319.5000    96.5620     8.0484     0.0390    83.3934     0.2394     0.1870     2.3622    20.4457    13.5992    17.4999
  320.0000    96.6945     8.0481     0.0435    79.4895     0.2407     0.1882     2.3615    20.4627    14.1868    17.5142
  320.5000    96.6860     8.0478     0.0299    80.2612     0.2500     0.1906     2.3652    20.4830    13.4323    17.4072
  321.0000    96.6777     8.0475     0.0072    84.1441     0.2540     0.1915     2.3728    20.4998    12.7179    17.3016
  321.5000    96.5191     8.0472     0.0056    85.6456     0.2498     0.1906     2.3803    20.5165    12.2943    17.1966
  322.0000    96.3496     8.0469     0.0192    84.7447     0.2428     0.1882     2.3865    20.5333    12.3035    16.9743
  322.5000    96.0406     8.0466     0.0342    81.2913     0.2335     0.1839     2.3886    20.4082    12.6585    16.7380
  323.0000    95.6449     8.0614     0.0372    78.8889     0.2311     0.1783     2.3879    20.0005    13.1267    16.3144
  323.5000    95.1102     8.0611     0.0251    78.4384     0.2338     0.1759     2.3864    19.4736    13.3997    16.1034
  324.0000    94.5635     8.0607     0.0069    79.9399     0.2447     0.1741     2.3865    19.2173    12.8664    15.8920
  324.5000    93.9780     8.0604     0.0069    83.5435     0.2583     0.1744     2.3871    18.8411    12.4378    15.6897
  325.0000    93.7566     8.0601     0.0174    84.1441     0.2562     0.1759     2.3871    18.4685    12.1071    15.4837
  325.5000    93.9865     8.0598     0.0219    83.5435     0.2477     0.1753     2.3856    18.4836    11.9473    15.4995
  326.0000    94.2038     8.0595     0.0235    82.9429     0.2429     0.1753     2.3772    18.7569    11.8737    15.5121
  326.5000    94.3332     8.0592     0.0183    82.9429     0.2393     0.1766     2.3765    19.0402    12.0506    15.5248
  327.0000    93.9970     8.0589     0.0172    83.2432     0.2411     0.1806     2.3818    19.1823    12.3128    15.5375
  327.5000    93.4623     8.0586     0.0202    85.7958     0.2523     0.1826     2.3886    18.6502    12.5807    15.4425
  328.0000    93.0168     8.0583     0.0201    87.7658     0.2572     0.1778     2.3923    17.9309    12.5032    15.1383
  328.5000    92.7971     8.0580     0.0170    88.4985     0.2569     0.1727     2.3976    17.5727    12.1685    14.9425
  329.0000    92.9395     8.0577     0.0155    88.4985     0.2515     0.1688     2.4059    17.3485    11.8471    14.7434
  329.5000    93.1107     8.0724     0.0185    88.6487     0.2388     0.1621     2.4127    17.4835    11.7740    14.6596
  330.0000    93.5220     8.0678     0.0260    87.7477     0.2312     0.1597     2.4134    17.6195    11.7017    14.6746
  330.5000    93.8894     8.0568     0.0335    85.0450     0.2455     0.1613     2.4051    18.0043    11.7106    14.7885
  331.0000    94.2568     8.0565     0.0380    85.1952     0.2548     0.1652     2.3991    18.3976    11.7195    15.0066
  331.5000    94.6242     8.0562     0.0319    87.0520     0.2539     0.1704     2.3922    18.6696    11.7302    15.1231
  332.0000    94.9165     8.0559     0.0029    88.2523     0.2452     0.1761     2.3817    18.9457    11.8206    15.5599
  332.5000    95.2087     8.0673    -0.0060    85.9459     0.2452     0.1803     2.3802    19.0930    11.9116    15.6807
  333.0000    95.4259     8.0704    -0.0060    84.7447     0.2579     0.1797     2.3839    19.2415    12.0034    15.9120
  333.5000    95.6430     8.0701     0.0060    85.3588     0.2658     0.1767     2.3893    19.2574    12.2646    16.0355
  334.0000    95.8602     8.0697     0.0279    86.3964     0.2646     0.1734     2.3915    19.2734    12.6185    15.9380
  334.5000    95.9291     8.0640     0.0422    83.6937     0.2609     0.1725     2.3900    19.1556    12.7157    15.9510
  335.0000    95.8437     8.0541     0.0406    82.9429     0.2737     0.1731     2.3915    18.7806    12.6374    15.7444
  335.5000    95.1592     8.0538     0.0315    83.5435     0.2728     0.1723     2.3977    18.5372    12.5596    15.6490
  336.0000    94.3245     8.0534     0.0149    86.6266     0.2637     0.1682     2.4050    18.1706    12.3083    15.5538
  336.5000    93.8655     8.0321     0.0133    89.5496     0.2544     0.1626     2.4073    17.6883    12.0665    15.3527
  337.0000    93.7069     8.0228     0.0178    89.2493     0.2501     0.1599     2.4126    17.3350    11.9093    15.0317
  337.5000    93.6987     8.0226     0.0253    87.1471     0.2508     0.1566     2.4171    16.8782    11.6733    14.6542
  338.0000    93.6904     8.0222     0.0313    84.1441     0.2568     0.1560     2.4201    16.5445    11.6015    14.3650
  338.5000    93.5319     8.0069     0.0343    84.5946     0.2710     0.1560     2.4194    16.3267    11.6911    14.1764
  339.0000    93.3734     7.9916     0.0312    85.6456     0.2744     0.1560     2.4186    16.0071    11.9475    14.0931
  339.5000    93.2900     7.9913     0.0236    86.5465     0.2731     0.1560     2.4186    15.9092    12.0372    14.2024
  340.0000    93.2066     7.9909     0.0190    85.7958     0.2641     0.1561     2.4201    15.8124    11.6385    14.4120
  340.5000    93.1983     7.9906     0.0160    84.8949     0.2562     0.1552     2.4231    15.9356    11.3290    14.6246
  341.0000    93.2652     7.9823     0.0235    85.0753     0.2570     0.1534     2.4254    16.0598    11.2571    14.9433
  341.5000    93.4072     7.9750     0.0280    85.2356     0.2579     0.1516     2.4261    16.4272    11.2677    15.3749
  342.0000    93.9249     7.9597     0.0219    86.2462     0.2409     0.1513     2.4231    17.1246    11.2761    15.9288
  342.5000    95.7949     7.9594     0.0173    86.5465     0.2412     0.1525     2.4201    18.1156    11.2846    16.7323
  343.0000    99.9189     7.9441     0.0248    81.8919     0.2497     0.1643     2.4063    19.4315    11.1377    17.7059
  343.5000   103.5921     7.9437     0.0323    75.4354     0.2539     0.1731     2.3740    21.1339    10.9928    18.7561
  344.0000   106.8896     7.9434     0.0187    73.6336     0.2577     0.1848     2.3196    23.7958    10.5533    20.4255
  344.5000   109.4358     7.9616     0.0126    72.4324     0.2748     0.2066     2.2992    28.1248    10.0614    22.9191
  345.0000   110.2540     7.9729     0.0231    71.8318     0.2818     0.2302     2.2961    32.1093     9.8619    25.4447
  345.5000   110.3981     7.9877     0.0382    71.8318     0.2772     0.2308     2.2961    35.1652     9.5910    29.6495
  346.0000   110.2375     7.9874     0.0351    72.4324     0.2655     0.2287     2.2969    36.6882     9.1441    33.8398
  346.5000   109.7784     7.9870     0.0260    74.2342     0.2592     0.2263     2.2984    37.7503     8.9708    35.5470
