~VERSION INFORMATION
 VERS.                2.0:   CWLS LOG ASCII STANDARD - VERSION 2.0
 WRAP.                 NO:   ONE LINE PER DEPTH STEP
~WELL INFORMATION
#MNEM.UNIT      DATA TYPE    INFORMATION
#----------   ------------   ------------------------------
 STRT.F           12.0000:   START DEPTH
 STOP.F          449.0000:   STOP DEPTH
 STEP.F            0.5000:   STEP LENGTH
 NULL.          -999.2500:   NO VALUE
 COMP. LAWRENCE-ALLISON &AS:   COMPANY
 WELL. NPR 3 #58-66SX3LI1:   WELL
 FLD .            WALDCAT:   FIELD
 LOC .       S3 T38N R78W:   LOCATION
 CNTY.            NATRONA:   COUNTY
 STAT.            WYOMING:   STATE
 CTRY. UNITED STATES OF AMERICA:   COUNTRY
 SRVC.      Dresser Atlas:   SERVICE COMPANY
 DATE.        11-JAN-1985:   LOGDATE
 API .       490251100100:   API NUMBER
~CURVE INFORMATION
#MNEM.UNIT       API CODE    CURVE DESCRIPTION
#----------   ------------   ------------------------------
 DEPT.F                  :   
 DT  .US/F   60 520 00 00:   INTERVAL TRANSIT TIME
 CALD.IN     45 280 60 00:   CALIPER FROM DENSITY LOG
 CORR.G/C3   45 356 01 00:   DENSITY CORRECTION
 GRD .GAPI   45 310 01 00:   GAMMA RAY FROM DENSITY LOG
 NPHI.DEC    42 890 03 00:   NEUTRON POROSITY SANDSTONE
 DPHI.DEC    45 890 12 00:   DENSITY POROSITY SANDSTONE
 RHOB.G/C3   45 350 01 00:   BULK DENSITY
 RD  .OHMM   11 220 10 00:   RESISTIVITY DEEP
 RMLL.OHMM   11 270 04 00:   MICRO LATEROLOG
 RS  .OHMM   11 220 09 00:   RESISTIVITY SHALLOW
~PARAMETER INFORMATION
#MNEM.UNIT          VALUE    DESCRIPTION
#----------   ------------   ------------------------------
 PD  .                 GL:   PERMANENT DATUM
 EPD .F              5184:   ELEVATION PERMANENT DATUM
 LMF .                 GL:   LOG MEASURED FROM
 DMF .                 GL:   DRILLING MEASURED FROM
 EGL .F              5184:   GROUND LEVEL
 DATE.        11-JAN-1985:   RUN DATE
 RUN .                  1:   RUN NUMBER
 DD  .F               451:   DEPTH DRILLER
 DL  .F               451:   DEPTH LOGGER
 BLI .F               442:   BOTTOM LOG INTERVAL
 TLI .F                20:   TOP LOG INTERVAL
 CS  .IN            8.625:   CASING SIZE
 CBD .F                20:   CASING BOTTOM DRILLER
 CBL .F                20:   CASING BOTTOM LOGGER
 BS  .IN            7.875:   BIT SIZE
 BSD .F               451:   BIT SIZE AT DEPTH
 DFT .          WATER-KCL:   DRILLING FLUID TYPE
 MSS .           MUD TANK:   MUD SAMPLE SOURCE
 RMS .OHMM           0.14:   RESISTIVITY MUD SAMPLE
 MST .F                90:   MUD SAMPLE TEMPERATURE
 RMF .OHMM           0.10:   RESISTIVITY MUD FILTRATE SAMPLE
 MFST.F                90:   MUD FILTRATE SAMPLE TEMPERATURE
 RMC .OHMM           0.17:   RESISTIVITY MUD CAKE
 MCST.F                90:   MUD CAKE SAMPLE TEMPERATURE
 MFSS.               CALC:   MUD FILTRATE SAMPLE SOURCE
 MCSS.               CALC:   MUD CAKE SAMPLE SOURCE
 TCS .HRS               7:   TIME CURCULATED STOPPED
 MRT .F               100:   MAXIMUM RECORDED TEMPERATURE
 LUN .               6270:   LOGGING UNIT NUMBER
 LUL .                 FM:   LOGGING UNIT LOCATION
 ENGI.          E. GOVETT:   RECORDING ENGINEER
 WITN.         MR. GROOMS:   WITNESSED BY
 CLNT.            A2DTECH:   CLIENT CODE
 ORIG.           5" PRINT:   ORIGIN OF DATA
 UWI .       490251100100:   UNIQUE WELL ID
 DICO. A2D Technologies, Inc.:   DIGITIZING COMPANY
~OTHER INFORMATION
~A   DEPT       DT       CALD       CORR        GRD         NPHI     DPHI       RHOB         RD       RMLL         RS   
# ...
  146.0000   106.4421     8.3158     0.0124   103.8490     0.2975     0.1400     2.4502    18.3641     7.1862     8.8558
  146.5000   106.6644     8.3158     0.0064   103.6945     0.2878     0.1400     2.4502    18.1235     7.1415     8.8008
  147.0000   107.0371     8.3158     0.0067   103.6902     0.2851     0.1406     2.4494    17.7626     7.1972     8.6858
  147.5000   107.4210     8.3158     0.0168   104.1364     0.2867     0.1418     2.4471    17.4119     7.2020     8.5737
  148.0000   107.7825     8.3158     0.0108   104.2823     0.3137     0.1454     2.4441    17.0651     7.2570     8.4617
  148.5000   108.2124     8.3158     0.0001   102.3258     0.3208     0.1500     2.4381    16.4903     7.3619     8.3511
  149.0000   108.6575     8.3158    -0.0044   102.4707     0.3166     0.1530     2.4290    15.8190     6.9230     8.1674
  149.5000   109.1779     8.3050     0.0052   103.5175     0.3103     0.1570     2.4226    14.9927     6.5543     7.7513
  150.0000   110.1942     8.3016     0.0136    99.1277     0.3118     0.1635     2.4147    13.9016     6.3795     7.2885
  150.5000   111.6288     8.3052     0.0257    96.9069     0.3184     0.1666     2.3950    12.5375     6.2487     6.7593
  151.0000   112.7715     8.3089     0.0226    96.7568     0.3200     0.1771     2.3859    11.5449     6.0859     6.3558
  151.5000   112.2955     8.3125     0.0180    96.7568     0.3151     0.1762     2.3866    11.0822     5.8028     6.0178
  152.0000   111.2050     8.3158     0.0103    97.3574     0.2870     0.1624     2.4047    10.8596     4.9862     5.8973
  152.5000   109.5215     8.3008     0.0044   101.4114     0.2810     0.1539     2.4230    11.7298     4.9201     6.2379
  153.0000   108.0878     8.2857     0.0013   105.0150     0.2840     0.1485     2.4349    13.3897     5.4256     6.7822
  153.5000   106.9547     8.2857     0.0028   106.2162     0.2913     0.1467     2.4387    14.6640     6.1927     7.4251
  154.0000   106.2728     8.2857     0.0194   106.6667     0.2898     0.1447     2.4439    15.5200     6.6413     8.0775
  154.5000   105.8917     8.2857     0.0390   107.1171     0.2789     0.1412     2.4557    16.0687     6.6530     8.6638
  155.0000   105.6609     8.2857     0.0737   107.8679     0.2756     0.1340     2.4741    16.4173     6.6502     8.9071
  155.5000   105.5818     8.2857     0.0797   104.4144     0.2720     0.1252     2.4794    16.5427     7.0378     8.9132
  156.0000   105.6518     8.3008     0.0525   100.0601     0.2681     0.1210     2.4786    16.5539     7.5561     8.9192
  156.5000   105.8709     8.3008     0.0404    99.3093     0.2617     0.1219     2.4755    16.5651     7.4976     8.8622
  157.0000   105.9421     8.3008     0.0343   102.8128     0.2575     0.1243     2.4717    16.5763     7.2977     8.8071
  157.5000   105.9356     8.2857     0.0343   105.1652     0.2672     0.1256     2.4732    16.7029     7.1031     8.8757
  158.0000   105.7049     8.2857     0.0433   104.7147     0.2841     0.1250     2.4770    16.9475     7.4095     8.9434
  158.5000   105.0230     8.2707     0.0463   102.4625     0.2926     0.1222     2.4762    17.4356     7.5179     9.0740
  159.0000   104.3411     8.2395     0.0369   100.4505     0.2870     0.1219     2.4709    17.8178     7.5753     9.2705
  159.5000   103.8095     8.2256     0.0281    99.0090     0.2839     0.1229     2.4618    18.0286     7.6861     9.5370
  160.0000   103.3532     8.2256     0.0266    98.4084     0.2805     0.1262     2.4564    18.2395     8.1295     9.6809
  160.5000   103.0473     8.2406     0.0371    97.8078     0.2799     0.1305     2.4580    18.4503     8.6581     9.8180
  161.0000   102.7413     8.2556     0.0582    97.5075     0.2757     0.1340     2.4602    18.6612     8.9693     9.8942
  161.5000   102.5857     8.2556     0.0537    99.4595     0.2769     0.1322     2.4579    18.8720     8.7732     9.9009
  162.0000   102.5053     8.2707     0.0385   105.9159     0.2860     0.1316     2.4572    19.0828     8.5564     9.9763
  162.5000   102.6566     8.2857     0.0279   110.1201     0.2927     0.1322     2.4602    19.2937     9.6335     9.9831
  163.0000   102.9554     8.3008     0.0219   111.6216     0.2963     0.1304     2.4624    19.5045     9.8424    10.0592
  163.5000   103.3421     8.3158     0.0203   109.2192     0.2870     0.1292     2.4632    19.7154     8.9390    10.0660
  164.0000   103.5358     8.3158     0.0248   105.6156     0.2815     0.1289     2.4646    19.9262     8.2890    10.0728
  164.5000   103.6071     8.3158     0.0339   102.8729     0.2836     0.1292     2.4654    20.1371     8.1791    10.0796
  165.0000   103.5254     8.3158     0.0354   100.8108     0.2910     0.1289     2.4668    20.3496     8.1861    10.0864
  165.5000   103.4450     8.3158     0.0338   100.2102     0.2964     0.1286     2.4644    20.2229     8.1351    10.0237
  166.0000   102.9887     8.3158     0.0323    99.9099     0.2988     0.1298     2.4630    20.2370     8.1971     9.9614
  166.5000   102.2316     8.3158     0.0277    99.4394     0.2967     0.1301     2.4645    20.1105     8.2028     9.9698
  167.0000   101.4745     8.3158     0.0231    99.1592     0.2802     0.1280     2.4698    20.2676     8.2655     9.9078
  167.5000   101.0182     8.3158     0.0156    99.7598     0.2771     0.1207     2.4833    20.1413     8.3876     9.8722
  168.0000   101.2385     8.3158     0.0034   103.5135     0.2928     0.1157     2.4863    20.1550     8.3933     9.8079
  168.5000   101.9852     8.3077    -0.0041   106.0661     0.2994     0.1226     2.4848    19.8911     8.2263     9.7436
  169.0000   102.9574     8.2857    -0.0102   106.5165     0.3003     0.1305     2.4619    19.7672     8.1187     9.6792
  169.5000   103.9297     8.2857    -0.0118   105.4655     0.2916     0.1347     2.4523    19.3736     8.0667     9.6042
  170.0000   104.6012     8.2707     0.0063   104.7147     0.2850     0.1347     2.4530    19.1167     8.0708     9.3485
  170.5000   105.5734     8.2707     0.0169   104.4144     0.2816     0.1335     2.4560    18.6098     8.0737     9.1628
  171.0000   106.4704     8.2707     0.0244   105.1652     0.2850     0.1317     2.4598    18.2393     8.0766     8.9793
  171.5000   107.2923     8.2756     0.0334   106.2162     0.3170     0.1293     2.4643    17.6301     8.0825     8.7417
  172.0000   108.3397     8.2857     0.0349   107.1171     0.3382     0.1278     2.4665    16.9190     7.8681     8.4504
  172.5000   109.2368     8.2857     0.0364   105.3153     0.3213     0.1290     2.4665    16.2195     7.5540     8.1688
  173.0000   110.3594     8.2857     0.0395   104.8649     0.3004     0.1317     2.4582    15.0657     7.2518     7.7344
  173.5000   111.6433     8.2857     0.0484   104.7147     0.2950     0.1350     2.4529    13.9694     6.8629     7.2226
  174.0000   112.8661     8.2857     0.0544   104.2442     0.2995     0.1396     2.4491    12.7745     6.5322     6.7908
  174.5000   114.5160     8.2857     0.0589   103.3634     0.3255     0.1432     2.4437    11.8449     6.1157     6.4670
  175.0000   116.4035     8.2857     0.0423   104.8649     0.3473     0.1510     2.4347    11.0594     5.6718     6.0259
  175.5000   119.1291     8.2857     0.0241   107.2673     0.3769     0.1667     2.4195     9.9053     5.2966     5.3433
  176.0000   122.4321     8.2857     0.0150   108.6186     0.4011     0.1770     2.3991     8.3353     4.8446     4.6564
  176.5000   125.5861     8.2857     0.0090   105.6156     0.4120     0.1975     2.3409     6.8223     4.3100     4.0298
  177.0000   130.0161     8.2857     0.0089   103.0631     0.4065     0.2344     2.3016     5.9023     3.5532     3.5117
  177.5000   133.8455     8.2707     0.0165   100.0601     0.3945     0.2615     2.2533     5.4728     2.9702     3.1028
  178.0000   135.3441     8.2707     0.0270    97.2072     0.3788     0.2833     2.2276     5.0395     2.6061     2.9176
  178.5000   132.2561     8.2556     0.0391    96.6066     0.3534     0.2648     2.2094     5.2991     2.2242     2.8989
  179.0000   129.9201     8.2556     0.0345    98.8589     0.3316     0.2341     2.2290     5.8916     2.0064     3.1307
