~VERSION INFORMATION
 VERS.                2.0:   CWLS LOG ASCII STANDARD - VERSION 2.0
 WRAP.                 NO:   ONE LINE PER DEPTH STEP
~WELL INFORMATION
#MNEM.UNIT      DATA TYPE    INFORMATION
#----------   ------------   ------------------------------
 STRT.F          542.0000:   START DEPTH
 STOP.F         5696.0000:   STOP DEPTH
 STEP.F            0.5000:   STEP LENGTH
 NULL.          -999.2500:   NO VALUE
 COMP.       DAVIS OIL CO:   COMPANY
 WELL. WEST TEAPOT DOME STATE #1-16:   WELL
 FLD .             TEAPOT:   FIELD
 LOC .      S16 T38N R78W:   LOCATION
 CNTY.            NATRONA:   COUNTY
 STAT.            WYOMING:   STATE
 CTRY. UNITED STATES OF AMERICA:   COUNTRY
 SRVC.       Schlumberger:   SERVICE COMPANY
 DATE.        24-MAR-1981:   LOGDATE
 API .       490252131000:   API NUMBER
~CURVE INFORMATION
#MNEM.UNIT       API CODE    CURVE DESCRIPTION
#----------   ------------   ------------------------------
 DEPT.F                  :   
 SPR .MV     07 010 01 00:   SPONTANEOUS POTENTIAL
 GRR .GAPI   07 310 01 00:   GAMMA RAY FROM RES. LOG.
 SFL .OHMM   07 220 01 00:   SHALLOW FOCUSED LOG RESISTIVITY
 ILD .OHMM   07 120 46 00:   INDUCTION LOG DEEP
 ILM .OHMM   07 120 44 00:   INDUCTION LOG MEDIUM
 CALD.IN     45 280 60 00:   CALIPER
 CORR.G/C3   45 356 01 00:   DENSITY CORRECTION
 RHOB.G/C3   45 350 01 00:   BULK DENSITY
 DPHI.DEC    45 890 12 00:   DENSITY POROSITY SANDSTONE
 DT  .US/F   60 520 00 00:   INTERVAL TRANSIT TIME
~PARAMETER INFORMATION
#MNEM.UNIT          VALUE    DESCRIPTION
#----------   ------------   ------------------------------
 PD  .                 GL:   PERMANENT DATUM
 EPD .F              5359:   ELEVATION PERMANENT DATUM
 LMF .                 KB:   LOG MEASURED FROM
 DAPD.F                10:   FEET ABOVE PERMANENT DATUM
 DMF .                 KB:   DRILLING MEASURED FROM
 EKB .F              5369:   KELLING BUSHING
 EGL .F              5359:   GROUND LEVEL
 DATE.            3-24-81:   RUN DATE
 RUN .                  1:   RUN NUMBER
 DD  .F              5700:   DEPTH DRILLER
 DL  .F              5700:   DEPTH LOGGER
 BLI .F              5694:   BOTTOM LOG INTERVAL
 TLI .F               559:   TOP LOG INTERVAL
 CS  .IN            9.625:   CASING SIZE
 CBD .F               554:   CASING BOTTOM DRILLER
 CBL .F               559:   CASING BOTTOM LOGGER
 BS  .IN             8.25:   BIT SIZE
 BSD .F              5700:   BIT SIZE AT DEPTH
 DFT .          DISPERSED:   DRILLING FLUID TYPE
 DFD .                9.7:   DRILLING FLUID DENSITY
 DFV .                 50:   DRILLING FLUID VISCOSITY
 DFPH.                8.5:   DRILLING FLUID PH
 DFL .                 10:   DRILLING FLUID LOSS
 MSS .            MUDTANK:   MUD SAMPLE SOURCE
 RMS .OHMM           2.34:   RESISTIVITY MUD SAMPLE
 MST .F                58:   MUD SAMPLE TEMPERATURE
 RMF .OHMM           1.67:   RESISTIVITY MUD FILTRATE SAMPLE
 MFST.F                65:   MUD FILTRATE SAMPLE TEMPERATURE
 MFSS.               MEAS:   MUD FILTRATE SAMPLE SOURCE
 RMB .OHMM            .98:   RESISTIVITY MUD AT BHT
 BHT .F               147:   BOTTOM HOLE TEMPERATURE
 TCS .HRS            2030:   TIME CURCULATED STOPPED
 TLAB.HRS            0100:   TIME LOGGER AT BOTTOM
 MRT .F               147:   MAXIMUM RECORDED TEMPERATURE
 LUN .               8035:   LOGGING UNIT NUMBER
 LUL .               CSPR:   LOGGING UNIT LOCATION
 ENGI.            BEATTIE:   RECORDING ENGINEER
 WITN.            TAUCHER:   WITNESSED BY
 CLNT.            A2DTECH:   CLIENT CODE
 ORIG.           5" PRINT:   ORIGIN OF DATA
 UWI .       490252131000:   UNIQUE WELL ID
 DICO. A2D Technologies, Inc.:   DIGITIZING COMPANY
~OTHER INFORMATION
~A   DEPT      SPR         GRR       SFL        ILD        ILM       CALD       CORR       RHOB       DPHI         DT   
# ...
  575.5000   -20.2311   115.9744     6.8455     8.2589     6.9415  -999.2500  -999.2500  -999.2500  -999.2500  -999.2500
  576.0000   -20.4541   113.2831     7.0925     8.3009     6.9255  -999.2500  -999.2500  -999.2500  -999.2500  -999.2500
  576.5000   -20.6785   108.1260     7.0549     8.2577     6.9097  -999.2500  -999.2500  -999.2500  -999.2500  -999.2500
  577.0000   -20.7453   104.8598     6.9758     8.2086     6.8979  -999.2500  -999.2500  -999.2500  -999.2500  -999.2500
  577.5000   -20.6960   101.5576     6.8979     8.1600     6.7501  -999.2500  -999.2500  -999.2500  -999.2500  -999.2500
  578.0000   -20.6461    98.4649     6.6865     8.1116     6.6126  -999.2500  -999.2500  -999.2500  -999.2500  -999.2500
  578.5000   -20.5955    96.9636     6.4426     8.0387     6.4780  -999.2500  -999.2500  -999.2500  -999.2500  -999.2500
  579.0000   -20.5449    99.3614     6.2076     7.8794     6.3465  -999.2500  -999.2500  -999.2500  -999.2500  -999.2500
  579.5000   -20.4946   102.3857     6.1154     7.7235     6.3142  -999.2500  -999.2500  -999.2500  -999.2500  -999.2500
  580.0000   -20.4441   103.8126     6.0465     7.5669     6.2881  -999.2500  -999.2500  -999.2500  -999.2500  -999.2500
  580.5000   -20.3911   103.4528     6.0036     7.5444     6.2753  -999.2500  -999.2500  -999.2500  -999.2500  -999.2500
  581.0000   -20.4121   104.6034     6.0846     7.5214     6.2622  -999.2500  -999.2500  -999.2500  -999.2500  -999.2500
  581.5000   -20.4605   107.6990     6.1158     7.4972     6.2492  -999.2500  -999.2500  -999.2500  -999.2500  -999.2500
  582.0000   -20.5098   110.6488     6.0497     7.6058     6.2301  -999.2500  -999.2500  -999.2500  -999.2500  -999.2500
  582.5000   -20.5586   107.7711     6.0011     7.7226     6.3486  -999.2500  -999.2500  -999.2500  -999.2500  -999.2500
  583.0000   -20.6345   103.2005     5.9483     7.8412     6.5799  -999.2500  -999.2500  -999.2500  -999.2500  -999.2500
  583.5000   -20.7238    98.6149     6.1734     8.0000     6.8196  -999.2500  -999.2500  -999.2500  -999.2500  -999.2500
  584.0000   -20.8811    95.5618     6.4310     7.9985     7.0681  -999.2500  -999.2500  -999.2500  -999.2500  -999.2500
  584.5000   -21.1348    97.3231     6.6992     7.9990     7.3256  -999.2500  -999.2500  -999.2500  -999.2500  -999.2500
  585.0000   -21.3871   101.1589     6.9646     8.0297     7.3597  -999.2500  -999.2500  -999.2500  -999.2500  -999.2500
  585.5000   -21.6394   105.2704     6.8280     8.0757     7.1661  -999.2500  -999.2500  -999.2500  -999.2500  -999.2500
  586.0000   -21.8918   105.1789     6.5415     8.1486     7.0164  -999.2500  -999.2500  -999.2500  -999.2500  -999.2500
  586.5000   -22.1442   103.7617     6.2670     8.1326     6.9286  -999.2500  -999.2500  -999.2500  -999.2500  -999.2500
  587.0000   -22.3960   104.8373     6.0595     8.0955     6.8913  -999.2500  -999.2500  -999.2500  -999.2500  -999.2500
  587.5000   -22.6488   105.9295     6.1107     8.0585     6.8756  -999.2500  -999.2500  -999.2500  -999.2500  -999.2500
  588.0000   -22.7624   101.7744     6.2390     8.0035     6.8599  -999.2500  -999.2500  -999.2500  -999.2500  -999.2500
  588.5000   -22.7633    96.3710     6.3465     8.0211     6.8364  -999.2500  -999.2500  -999.2500  -999.2500  -999.2500
  589.0000   -22.7653    93.1460     6.2710     8.0792     6.8429  -999.2500  -999.2500  -999.2500  -999.2500  -999.2500
  589.5000   -22.7596    92.5722     6.2301     8.1378     6.8661  -999.2500  -999.2500  -999.2500  -999.2500  -999.2500
  590.0000   -22.3689    93.9465     6.3428     8.1967     6.8894  -999.2500  -999.2500  -999.2500  -999.2500  -999.2500
  590.5000   -21.9572    95.8101     6.4633     8.2243     6.9128  -999.2500  -999.2500  -999.2500  -999.2500  -999.2500
  591.0000   -21.5789    97.6741     6.5862     8.1890     6.9363  -999.2500  -999.2500  -999.2500  -999.2500  -999.2500
  591.5000   -21.2203    99.3709     6.6472     8.1579     6.9620  -999.2500  -999.2500  -999.2500  -999.2500  -999.2500
  592.0000   -21.0842    98.7525     6.4965     8.0389     6.7964  -999.2500  -999.2500  -999.2500  -999.2500  -999.2500
  592.5000   -20.9822    97.4231     6.3335     7.8849     6.6176  -999.2500  -999.2500  -999.2500  -999.2500  -999.2500
  593.0000   -20.8808    97.0869     6.1747     7.7338     6.4433  -999.2500  -999.2500  -999.2500  -999.2500  -999.2500
  593.5000   -20.7789    96.7817     6.0197     7.5856     6.2737  -999.2500  -999.2500  -999.2500  -999.2500  -999.2500
  594.0000   -20.6762    95.6601     5.8686     7.4402     6.1158  -999.2500  -999.2500  -999.2500  -999.2500  -999.2500
  594.5000   -20.5812    93.3790     5.7216     7.3597     6.0595  -999.2500  -999.2500  -999.2500  -999.2500  -999.2500
  595.0000   -20.6518    91.1186     5.5780     7.5157     6.1380  -999.2500  -999.2500  -999.2500  -999.2500  -999.2500
  595.5000   -20.7283    88.8575     5.5238     7.6392     6.2151  -999.2500  -999.2500  -999.2500  -999.2500  -999.2500
  596.0000   -20.7902    87.3600     5.7024     7.8346     6.5171  -999.2500  -999.2500  -999.2500  -999.2500  -999.2500
  596.5000   -20.8277    90.1359     5.9198     8.0331     6.8979  -999.2500  -999.2500  -999.2500  -999.2500  -999.2500
  597.0000   -20.8654    93.3890     6.2650     8.2375     6.9621  -999.2500  -999.2500  -999.2500  -999.2500  -999.2500
  597.5000   -20.9029    95.0308     6.8454     8.4559     7.1551  -999.2500  -999.2500  -999.2500  -999.2500  -999.2500
  598.0000   -20.9411    95.1340     7.4796     8.5895     7.3593  -999.2500  -999.2500  -999.2500  -999.2500  -999.2500
  598.5000   -21.0172    94.8093     7.9935     8.7309     7.6053  -999.2500  -999.2500  -999.2500  -999.2500  -999.2500
  599.0000   -21.3441    94.9182     7.4210     8.8565     7.3768  -999.2500  -999.2500  -999.2500  -999.2500  -999.2500
  599.5000   -21.6849    96.7904     6.8911     8.7128     7.1552  -999.2500  -999.2500  -999.2500  -999.2500  -999.2500
  600.0000   -21.6878    99.4177     6.3991     8.5597     6.9403  -999.2500  -999.2500  -999.2500  -999.2500  -999.2500
  600.5000   -21.5795   101.7822     5.9422     8.4093     6.7318  -999.2500  -999.2500  -999.2500  -999.2500  -999.2500
  601.0000   -21.4671   101.7323     5.8392     8.2612     6.7090  -999.2500  -999.2500  -999.2500  -999.2500  -999.2500
  601.5000   -21.3548    99.9628     6.0104     8.1155     6.7090  -999.2500  -999.2500  -999.2500  -999.2500  -999.2500
  602.0000   -21.2430    98.2349     6.1732     7.9240     6.7090  -999.2500  -999.2500  -999.2500  -999.2500  -999.2500
  602.5000   -21.1311    96.6202     6.3404     7.9262     6.6858  -999.2500  -999.2500  -999.2500  -999.2500  -999.2500
  603.0000   -21.0194    96.0295     6.5122     7.9245     6.6349  -999.2500  -999.2500  -999.2500  -999.2500  -999.2500
  603.5000   -20.9073    94.6319     6.6472     7.9254     6.5848  -999.2500  -999.2500  -999.2500  -999.2500  -999.2500
  604.0000   -20.7947    92.7966     6.4362     7.9254     6.5348  -999.2500  -999.2500  -999.2500  -999.2500  -999.2500
  604.5000   -20.7756    90.9653     6.1903     7.9254     6.4593  -999.2500  -999.2500  -999.2500  -999.2500  -999.2500
  605.0000   -20.7750    89.4527     5.9539     7.8990     6.3787  -999.2500  -999.2500  -999.2500  -999.2500  -999.2500
  605.5000   -20.7717    89.0597     5.6793     7.8660     6.3415  -999.2500  -999.2500  -999.2500  -999.2500  -999.2500
  606.0000   -20.8867    89.4837     5.7463     7.8331     6.3151  -999.2500  -999.2500  -999.2500  -999.2500  -999.2500
  606.5000   -21.0263    92.3063     5.9245     7.7844     6.2881  -999.2500  -999.2500  -999.2500  -999.2500  -999.2500
  607.0000   -21.1672    95.4646     6.0525     7.8154     6.3996  -999.2500  -999.2500  -999.2500  -999.2500  -999.2500
  607.5000   -21.3079    96.2425     5.9759     7.9137     6.5479  -999.2500  -999.2500  -999.2500  -999.2500  -999.2500
  608.0000   -21.4485    93.8412     5.9483     8.0132     6.6997  -999.2500  -999.2500  -999.2500  -999.2500  -999.2500
  608.5000   -21.5890    91.8278     6.2306     8.1140     6.8550  -999.2500  -999.2500  -999.2500  -999.2500  -999.2500
