~VERSION INFORMATION
 VERS.                2.0:   CWLS LOG ASCII STANDARD - VERSION 2.0
 WRAP.                 NO:   ONE LINE PER DEPTH STEP
~WELL INFORMATION
#MNEM.UNIT      DATA TYPE    INFORMATION
#----------   ------------   ------------------------------
 STRT.F          542.0000:   START DEPTH
 STOP.F         5696.0000:   STOP DEPTH
 STEP.F            0.5000:   STEP LENGTH
 NULL.          -999.2500:   NO VALUE
 COMP.       DAVIS OIL CO:   COMPANY
 WELL. WEST TEAPOT DOME STATE #1-16:   WELL
 FLD .             TEAPOT:   FIELD
 LOC .      S16 T38N R78W:   LOCATION
 CNTY.            NATRONA:   COUNTY
 STAT.            WYOMING:   STATE
 CTRY. UNITED STATES OF AMERICA:   COUNTRY
 SRVC.       Schlumberger:   SERVICE COMPANY
 DATE.        24-MAR-1981:   LOGDATE
 API .       490252131000:   API NUMBER
~CURVE INFORMATION
#MNEM.UNIT       API CODE    CURVE DESCRIPTION
#----------   ------------   ------------------------------
 DEPT.F                  :   
 SPR .MV     07 010 01 00:   SPONTANEOUS POTENTIAL
 GRR .GAPI   07 310 01 00:   GAMMA RAY FROM RES. LOG.
 SFL .OHMM   07 220 01 00:   SHALLOW FOCUSED LOG RESISTIVITY
 ILD .OHMM   07 120 46 00:   INDUCTION LOG DEEP
 ILM .OHMM   07 120 44 00:   INDUCTION LOG MEDIUM
 CALD.IN     45 280 60 00:   CALIPER
 CORR.G/C3   45 356 01 00:   DENSITY CORRECTION
 RHOB.G/C3   45 350 01 00:   BULK DENSITY
 DPHI.DEC    45 890 12 00:   DENSITY POROSITY SANDSTONE
 DT  .US/F   60 520 00 00:   INTERVAL TRANSIT TIME
~PARAMETER INFORMATION
#MNEM.UNIT          VALUE    DESCRIPTION
#----------   ------------   ------------------------------
 PD  .                 GL:   PERMANENT DATUM
 EPD .F              5359:   ELEVATION PERMANENT DATUM
 LMF .                 KB:   LOG MEASURED FROM
 DAPD.F                10:   FEET ABOVE PERMANENT DATUM
 DMF .                 KB:   DRILLING MEASURED FROM
 EKB .F              5369:   KELLING BUSHING
 EGL .F              5359:   GROUND LEVEL
 DATE.            3-24-81:   RUN DATE
 RUN .                  1:   RUN NUMBER
 DD  .F              5700:   DEPTH DRILLER
 DL  .F              5700:   DEPTH LOGGER
 BLI .F              5694:   BOTTOM LOG INTERVAL
 TLI .F               559:   TOP LOG INTERVAL
 CS  .IN            9.625:   CASING SIZE
 CBD .F               554:   CASING BOTTOM DRILLER
 CBL .F               559:   CASING BOTTOM LOGGER
 BS  .IN             8.25:   BIT SIZE
 BSD .F              5700:   BIT SIZE AT DEPTH
 DFT .          DISPERSED:   DRILLING FLUID TYPE
 DFD .                9.7:   DRILLING FLUID DENSITY
 DFV .                 50:   DRILLING FLUID VISCOSITY
 DFPH.                8.5:   DRILLING FLUID PH
 DFL .                 10:   DRILLING FLUID LOSS
 MSS .            MUDTANK:   MUD SAMPLE SOURCE
 RMS .OHMM           2.34:   RESISTIVITY MUD SAMPLE
 MST .F                58:   MUD SAMPLE TEMPERATURE
 RMF .OHMM           1.67:   RESISTIVITY MUD FILTRATE SAMPLE
 MFST.F                65:   MUD FILTRATE SAMPLE TEMPERATURE
 MFSS.               MEAS:   MUD FILTRATE SAMPLE SOURCE
 RMB .OHMM            .98:   RESISTIVITY MUD AT BHT
 BHT .F               147:   BOTTOM HOLE TEMPERATURE
 TCS .HRS            2030:   TIME CURCULATED STOPPED
 TLAB.HRS            0100:   TIME LOGGER AT BOTTOM
 MRT .F               147:   MAXIMUM RECORDED TEMPERATURE
 LUN .               8035:   LOGGING UNIT NUMBER
 LUL .               CSPR:   LOGGING UNIT LOCATION
 ENGI.            BEATTIE:   RECORDING ENGINEER
 WITN.            TAUCHER:   WITNESSED BY
 CLNT.            A2DTECH:   CLIENT CODE
 ORIG.           5" PRINT:   ORIGIN OF DATA
 UWI .       490252131000:   UNIQUE WELL ID
 DICO. A2D Technologies, Inc.:   DIGITIZING COMPANY
~OTHER INFORMATION
~A   DEPT      SPR         GRR       SFL        ILD        ILM       CALD       CORR       RHOB       DPHI         DT   
# ...
 2954.0000   -21.5041    94.9941     7.2969     7.4404     6.9621  -999.2500  -999.2500  -999.2500  -999.2500  -999.2500
 2954.5000   -21.8355    89.9936     7.3597     7.5697     6.8928  -999.2500  -999.2500  -999.2500  -999.2500  -999.2500
 2955.0000   -22.1556    90.4002     7.3436     7.5332     6.7714  -999.2500  -999.2500  -999.2500  -999.2500  -999.2500
 2955.5000   -22.2171    93.8749     7.2557     7.4801     6.8011  -999.2500  -999.2500  -999.2500  -999.2500  -999.2500
 2956.0000   -22.2770    97.2915     7.1689     7.4267     6.8532  -999.2500  -999.2500  -999.2500  -999.2500  -999.2500
 2956.5000   -22.3383    97.3742     7.0832     7.3594     6.9056  -999.2500  -999.2500  -999.2500  -999.2500  -999.2500
 2957.0000   -22.4841    97.1492     7.0268     7.3710     6.9621  -999.2500  -999.2500  -999.2500  -999.2500  -999.2500
 2957.5000   -22.7068    97.0131     7.1071     7.3921     6.9400  -999.2500  -999.2500  -999.2500  -999.2500  -999.2500
 2958.0000   -22.6167    97.2819     7.1943     7.4133     6.9099  -999.2500  -999.2500  -999.2500  -999.2500  -999.2500
 2958.5000   -22.3393    97.8216     7.2919     7.4281     6.8798  -999.2500  -999.2500  -999.2500  -999.2500  -999.2500
 2959.0000   -22.0480    97.0856     7.2723     7.4061     6.8499  -999.2500  -999.2500  -999.2500  -999.2500  -999.2500
 2959.5000   -21.9104    96.0579     7.2325     7.3892     6.8046  -999.2500  -999.2500  -999.2500  -999.2500  -999.2500
 2960.0000   -21.6433    95.0197     7.1929     7.3723     6.7426  -999.2500  -999.2500  -999.2500  -999.2500  -999.2500
 2960.5000   -21.5017    93.9572     7.1536     7.3413     6.6813  -999.2500  -999.2500  -999.2500  -999.2500  -999.2500
 2961.0000   -21.1855    95.2975     7.1144     7.2689     6.6208  -999.2500  -999.2500  -999.2500  -999.2500  -999.2500
 2961.5000   -20.8766    97.5592     7.0229     7.1969     6.5608  -999.2500  -999.2500  -999.2500  -999.2500  -999.2500
 2962.0000   -20.5873    99.7875     6.8642     7.1255     6.5093  -999.2500  -999.2500  -999.2500  -999.2500  -999.2500
 2962.5000   -20.6931   101.2945     6.7651     7.0550     6.4318  -999.2500  -999.2500  -999.2500  -999.2500  -999.2500
 2963.0000   -20.8131   102.1979     6.7343     7.0094     6.3551  -999.2500  -999.2500  -999.2500  -999.2500  -999.2500
 2963.5000   -20.9318   101.7356     6.7090     6.9804     6.2798  -999.2500  -999.2500  -999.2500  -999.2500  -999.2500
 2964.0000   -21.0503    99.4655     6.5610     6.8940     6.2053  -999.2500  -999.2500  -999.2500  -999.2500  -999.2500
 2964.5000   -21.1644    95.2245     6.4117     6.7125     6.1727  -999.2500  -999.2500  -999.2500  -999.2500  -999.2500
 2965.0000   -21.3295    91.0122     6.2869     6.5253     6.1727  -999.2500  -999.2500  -999.2500  -999.2500  -999.2500
 2965.5000   -21.5344    89.4181     6.4090     6.5346     6.1727  -999.2500  -999.2500  -999.2500  -999.2500  -999.2500
 2966.0000   -21.7431    92.4501     6.5786     6.5446     6.1727  -999.2500  -999.2500  -999.2500  -999.2500  -999.2500
 2966.5000   -21.9595    95.8884     6.7714     6.5546     6.1727  -999.2500  -999.2500  -999.2500  -999.2500  -999.2500
 2967.0000   -22.0290    99.0112     6.7714     6.5646     6.1728  -999.2500  -999.2500  -999.2500  -999.2500  -999.2500
 2967.5000   -22.0931    97.2035     6.7714     6.5747     6.1729  -999.2500  -999.2500  -999.2500  -999.2500  -999.2500
 2968.0000   -22.1583    94.5797     6.7714     6.5848     6.1725  -999.2500  -999.2500  -999.2500  -999.2500  -999.2500
 2968.5000   -22.2239    91.8545     6.6971     6.5158     6.1738  -999.2500  -999.2500  -999.2500  -999.2500  -999.2500
 2969.0000   -22.2892    91.4695     6.5866     6.4360     6.1138  -999.2500  -999.2500  -999.2500  -999.2500  -999.2500
 2969.5000   -22.3543    93.2880     6.4780     6.3487     6.0674  -999.2500  -999.2500  -999.2500  -999.2500  -999.2500
 2970.0000   -22.2869    95.1326     6.3712     6.2858     6.0037  -999.2500  -999.2500  -999.2500  -999.2500  -999.2500
 2970.5000   -22.0989    95.8837     6.2881     6.4042     6.0216  -999.2500  -999.2500  -999.2500  -999.2500  -999.2500
 2971.0000   -21.9115    93.5642     6.3266     6.3835     6.0652  -999.2500  -999.2500  -999.2500  -999.2500  -999.2500
 2971.5000   -21.7259    90.8097     6.4238     6.3652     6.1092  -999.2500  -999.2500  -999.2500  -999.2500  -999.2500
 2972.0000   -21.5655    88.0340     6.5224     6.3465     6.1535  -999.2500  -999.2500  -999.2500  -999.2500  -999.2500
 2972.5000   -21.5717    86.2105     6.6226     6.4316     6.2019  -999.2500  -999.2500  -999.2500  -999.2500  -999.2500
 2973.0000   -21.5707    86.9891     6.7243     6.5449     6.2538  -999.2500  -999.2500  -999.2500  -999.2500  -999.2500
 2973.5000   -21.4535    89.0629     6.8276     6.6601     6.3059  -999.2500  -999.2500  -999.2500  -999.2500  -999.2500
 2974.0000   -20.5973    91.1652     6.9325     6.7771     6.3585  -999.2500  -999.2500  -999.2500  -999.2500  -999.2500
 2974.5000   -20.2094    93.0841     7.0268     6.8445     6.4106  -999.2500  -999.2500  -999.2500  -999.2500  -999.2500
 2975.0000   -20.4326    93.7854     7.0676     6.8641     6.4547  -999.2500  -999.2500  -999.2500  -999.2500  -999.2500
 2975.5000   -20.6563    97.1940     7.1488     6.8837     6.4991  -999.2500  -999.2500  -999.2500  -999.2500  -999.2500
 2976.0000   -21.0084   101.0317     7.2247     6.9034     6.5438  -999.2500  -999.2500  -999.2500  -999.2500  -999.2500
 2976.5000   -21.5415   101.7864     7.1847     6.9232     6.5859  -999.2500  -999.2500  -999.2500  -999.2500  -999.2500
 2977.0000   -21.7763    98.5715     7.1586     6.9430     6.6165  -999.2500  -999.2500  -999.2500  -999.2500  -999.2500
 2977.5000   -21.8537    95.3734     7.1897     6.9621     6.6454  -999.2500  -999.2500  -999.2500  -999.2500  -999.2500
 2978.0000   -21.9182    94.8429     7.2247     7.0096     6.6744  -999.2500  -999.2500  -999.2500  -999.2500  -999.2500
 2978.5000   -21.9676    98.7396     7.2092     7.0555     6.7036  -999.2500  -999.2500  -999.2500  -999.2500  -999.2500
 2979.0000   -21.8920    96.0436     7.1727     7.1017     6.7692  -999.2500  -999.2500  -999.2500  -999.2500  -999.2500
 2979.5000   -21.8157    90.5811     7.0922     7.1483     6.8439  -999.2500  -999.2500  -999.2500  -999.2500  -999.2500
 2980.0000   -21.7253    87.5542     7.1882     7.1951     6.9194  -999.2500  -999.2500  -999.2500  -999.2500  -999.2500
 2980.5000   -21.6092    90.0777     7.3559     7.2423     6.9958  -999.2500  -999.2500  -999.2500  -999.2500  -999.2500
 2981.0000   -21.4929    94.5875     7.5749     7.2919     7.0730  -999.2500  -999.2500  -999.2500  -999.2500  -999.2500
 2981.5000   -21.3784    96.3025     7.8388     7.2284     7.1581  -999.2500  -999.2500  -999.2500  -999.2500  -999.2500
 2982.0000   -21.2864    95.8433     8.0418     7.1581     7.0243  -999.2500  -999.2500  -999.2500  -999.2500  -999.2500
 2982.5000   -21.1745    96.9125     7.6846     7.2428     6.8848  -999.2500  -999.2500  -999.2500  -999.2500  -999.2500
 2983.0000   -21.0612    98.1037     7.3571     7.3589     6.7488  -999.2500  -999.2500  -999.2500  -999.2500  -999.2500
 2983.5000   -20.9483    99.2844     7.0436     7.2869     6.6151  -999.2500  -999.2500  -999.2500  -999.2500  -999.2500
 2984.0000   -20.8360    99.3318     6.7434     7.1826     6.4843  -999.2500  -999.2500  -999.2500  -999.2500  -999.2500
 2984.5000   -20.7723    97.6135     6.5950     7.0807     6.3557  -999.2500  -999.2500  -999.2500  -999.2500  -999.2500
 2985.0000   -20.6806    95.9418     6.6518     7.0132     6.2881  -999.2500  -999.2500  -999.2500  -999.2500  -999.2500
 2985.5000   -20.5878    95.2291     6.7283     6.9841     6.3026  -999.2500  -999.2500  -999.2500  -999.2500  -999.2500
 2986.0000   -20.7105    96.9439     6.8056     6.9552     6.3196  -999.2500  -999.2500  -999.2500  -999.2500  -999.2500
 2986.5000   -20.9160   101.7041     6.8839     6.9263     6.3366  -999.2500  -999.2500  -999.2500  -999.2500  -999.2500
 2987.0000   -21.1232   100.2243     6.9630     6.8976     6.3537  -999.2500  -999.2500  -999.2500  -999.2500  -999.2500
