~VERSION INFORMATION
 VERS.                2.0:   CWLS LOG ASCII STANDARD - VERSION 2.0
 WRAP.                 NO:   ONE LINE PER DEPTH STEP
~WELL INFORMATION
#MNEM.UNIT      DATA TYPE    INFORMATION
#----------   ------------   ------------------------------
 STRT.F          542.0000:   START DEPTH
 STOP.F         5696.0000:   STOP DEPTH
 STEP.F            0.5000:   STEP LENGTH
 NULL.          -999.2500:   NO VALUE
 COMP.       DAVIS OIL CO:   COMPANY
 WELL. WEST TEAPOT DOME STATE #1-16:   WELL
 FLD .             TEAPOT:   FIELD
 LOC .      S16 T38N R78W:   LOCATION
 CNTY.            NATRONA:   COUNTY
 STAT.            WYOMING:   STATE
 CTRY. UNITED STATES OF AMERICA:   COUNTRY
 SRVC.       Schlumberger:   SERVICE COMPANY
 DATE.        24-MAR-1981:   LOGDATE
 API .       490252131000:   API NUMBER
~CURVE INFORMATION
#MNEM.UNIT       API CODE    CURVE DESCRIPTION
#----------   ------------   ------------------------------
 DEPT.F                  :   
 SPR .MV     07 010 01 00:   SPONTANEOUS POTENTIAL
 GRR .GAPI   07 310 01 00:   GAMMA RAY FROM RES. LOG.
 SFL .OHMM   07 220 01 00:   SHALLOW FOCUSED LOG RESISTIVITY
 ILD .OHMM   07 120 46 00:   INDUCTION LOG DEEP
 ILM .OHMM   07 120 44 00:   INDUCTION LOG MEDIUM
 CALD.IN     45 280 60 00:   CALIPER
 CORR.G/C3   45 356 01 00:   DENSITY CORRECTION
 RHOB.G/C3   45 350 01 00:   BULK DENSITY
 DPHI.DEC    45 890 12 00:   DENSITY POROSITY SANDSTONE
 DT  .US/F   60 520 00 00:   INTERVAL TRANSIT TIME
~PARAMETER INFORMATION
#MNEM.UNIT          VALUE    DESCRIPTION
#----------   ------------   ------------------------------
 PD  .                 GL:   PERMANENT DATUM
 EPD .F              5359:   ELEVATION PERMANENT DATUM
 LMF .                 KB:   LOG MEASURED FROM
 DAPD.F                10:   FEET ABOVE PERMANENT DATUM
 DMF .                 KB:   DRILLING MEASURED FROM
 EKB .F              5369:   KELLING BUSHING
 EGL .F              5359:   GROUND LEVEL
 DATE.            3-24-81:   RUN DATE
 RUN .                  1:   RUN NUMBER
 DD  .F              5700:   DEPTH DRILLER
 DL  .F              5700:   DEPTH LOGGER
 BLI .F              5694:   BOTTOM LOG INTERVAL
 TLI .F               559:   TOP LOG INTERVAL
 CS  .IN            9.625:   CASING SIZE
 CBD .F               554:   CASING BOTTOM DRILLER
 CBL .F               559:   CASING BOTTOM LOGGER
 BS  .IN             8.25:   BIT SIZE
 BSD .F              5700:   BIT SIZE AT DEPTH
 DFT .          DISPERSED:   DRILLING FLUID TYPE
 DFD .                9.7:   DRILLING FLUID DENSITY
 DFV .                 50:   DRILLING FLUID VISCOSITY
 DFPH.                8.5:   DRILLING FLUID PH
 DFL .                 10:   DRILLING FLUID LOSS
 MSS .            MUDTANK:   MUD SAMPLE SOURCE
 RMS .OHMM           2.34:   RESISTIVITY MUD SAMPLE
 MST .F                58:   MUD SAMPLE TEMPERATURE
 RMF .OHMM           1.67:   RESISTIVITY MUD FILTRATE SAMPLE
 MFST.F                65:   MUD FILTRATE SAMPLE TEMPERATURE
 MFSS.               MEAS:   MUD FILTRATE SAMPLE SOURCE
 RMB .OHMM            .98:   RESISTIVITY MUD AT BHT
 BHT .F               147:   BOTTOM HOLE TEMPERATURE
 TCS .HRS            2030:   TIME CURCULATED STOPPED
 TLAB.HRS            0100:   TIME LOGGER AT BOTTOM
 MRT .F               147:   MAXIMUM RECORDED TEMPERATURE
 LUN .               8035:   LOGGING UNIT NUMBER
 LUL .               CSPR:   LOGGING UNIT LOCATION
 ENGI.            BEATTIE:   RECORDING ENGINEER
 WITN.            TAUCHER:   WITNESSED BY
 CLNT.            A2DTECH:   CLIENT CODE
 ORIG.           5" PRINT:   ORIGIN OF DATA
 UWI .       490252131000:   UNIQUE WELL ID
 DICO. A2D Technologies, Inc.:   DIGITIZING COMPANY
~OTHER INFORMATION
~A   DEPT      SPR         GRR       SFL        ILD        ILM       CALD       CORR       RHOB       DPHI         DT   
# ...
 5667.5000   -21.2182   144.7791     4.8077     3.9583     4.0773     8.7472     0.1098     2.6006     0.0487    84.4945
 5668.0000   -21.1400   141.2166     4.9355     3.6576     3.8126     8.5806     0.1453     2.6020     0.0461    83.8008
 5668.5000   -21.0469   139.7995     5.0822     3.3686     3.5095     8.4691     0.1809     2.6030     0.0463    83.5108
 5669.0000   -20.9541   140.0350     4.6086     3.1156     3.1101     8.4486     0.2070     2.5998     0.0481    85.8814
 5669.5000   -20.8613   140.2583     3.8579     2.9435     3.1098     8.4991     0.2056     2.5929     0.0529    89.0991
 5670.0000   -20.7683   140.4200     3.2294     3.1120     3.3958     8.5485     0.1922     2.5715     0.0604    89.8999
 5670.5000   -20.6741   137.9944     3.0830     3.3698     3.8197     8.5812     0.1198     2.5873     0.0596    87.8979
 5671.0000   -20.5822   133.5528     4.7290     3.7589     4.2965     8.5579     0.1042     2.6205     0.0385    83.7698
 5671.5000   -20.7208   129.2429     7.4074     4.1930     4.8328     8.5553     0.0919     2.6770     0.0061    76.7908
 5672.0000   -20.8776   126.7555    11.6373     4.6771     5.4361     8.5751     0.0929     2.6936    -0.0089    71.4334
 5672.5000   -21.0344   127.4962    16.9594     5.2171     6.1727     8.5946     0.0939     2.6537     0.0183    70.1802
 5673.0000   -21.2237   131.3437    16.9536     5.8195     6.4792     8.6103     0.0991     2.6201     0.0368    71.4600
 5673.5000   -21.6460   133.1078    13.7967     6.1158     6.6472     8.6219     0.1023     2.6036     0.0459    73.3229
 5674.0000   -22.0692   132.1073    10.8560     6.0019     6.0077     8.6490     0.1005     2.5940     0.0521    75.3668
 5674.5000   -22.3980   135.7348     8.5421     5.4881     5.3770     8.6983     0.1017     2.5831     0.0576    77.6388
 5675.0000   -22.4989   -11.1775     6.7214     4.7670     4.8119     8.7230     0.1142     2.5815     0.0595    80.7407
 5675.5000   -22.7306   -72.1100     5.4923     4.1407     4.3066     8.7232     0.1256     2.5752     0.0623    84.1942
 5676.0000   -23.3646  -999.2500     4.9070     3.5967     3.8546     8.7231     0.1335     2.5531     0.0762    86.6536
 5676.5000   -24.0409  -999.2500     3.6342     3.4452     3.5545     8.7178     0.1321     2.5273     0.0961    91.2524
 5677.0000   -26.2755  -999.2500     3.0688     3.5408     3.6406     8.6975     0.1067     2.4984     0.1072    93.4749
 5677.5000   -30.3326  -999.2500     3.4198     3.7460     3.9300     8.6770     0.0732     2.4877     0.1146    91.3543
 5678.0000   -35.6439  -999.2500     4.1461     4.2046     4.3022     8.6429     0.0465     2.4990     0.1086    87.3048
 5678.5000   -41.3609  -999.2500     8.3005     5.0560     5.4008     8.5687     0.0397     2.5462     0.0828    74.9011
 5679.0000   -46.7769  -999.2500    27.8068     6.0797     6.6713     8.5506     0.0527     2.5607     0.0712    68.8211
 5679.5000   -51.8275  -999.2500    59.9232     8.0392     9.0831     8.5311     0.0493     2.5470     0.0780    63.1521
 5680.0000   -56.8491  -999.2500    81.2286    11.1651    12.9835     8.5095     0.0375     2.5245     0.0876    61.7575
 5680.5000   -58.7634  -999.2500    76.5822    17.1021    18.5587     8.5374     0.0321     2.5126     0.0972    61.3714
 5681.0000   -59.9183  -999.2500    67.8347    23.3932    25.1198     8.5741     0.0326     2.5090     0.1026    61.8343
 5681.5000   -60.7430  -999.2500    64.8012    29.7779    31.4786     8.6022     0.0352     2.5089     0.1000    62.8729
 5682.0000   -61.5285  -999.2500    66.0231    30.0548    32.0668     8.5739     0.0404     2.5122     0.0991    63.9114
 5682.5000   -61.8659  -999.2500    68.8488    27.7648    31.5629     8.5470     0.0420     2.5168     0.0980    64.0741
 5683.0000   -62.3062  -999.2500    71.0860    26.0524    30.4513     8.5526     0.0425     2.5160     0.0985    62.4994
 5683.5000   -62.7344  -999.2500    69.3741    24.4456    28.9214     8.5597     0.0456     2.5152     0.0988    61.2713
 5684.0000   -62.6472  -999.2500    62.7005    22.9790    27.2065     8.5633     0.0516     2.5199     0.0969    61.2713
 5684.5000   -60.2407  -999.2500    52.1424    20.7216    24.6268     8.5473     0.0626     2.5237     0.0926    62.3944
 5685.0000   -57.3026  -999.2500    42.1672    18.7389    21.8690     8.5317     0.0627     2.5115     0.0993    63.3015
 5685.5000   -52.0757  -999.2500    32.8182    16.3418    18.7740     8.5164     0.0596     2.4970     0.1070    64.2865
 5686.0000   -46.4015  -999.2500    25.5421    13.4063    14.6065     8.5227     0.0531     2.4930     0.1112    65.2738
 5686.5000   -40.8885  -999.2500    20.1885    10.2004    11.3649     8.5649     0.0529     2.4986     0.1053    66.6807
 5687.0000   -35.0462  -999.2500    16.9527     7.7614     8.8429     8.5809     0.0792     2.5286     0.0922    69.3944
 5687.5000   -29.0166  -999.2500    13.6719     5.9722     6.8807     8.5958     0.1055     2.5449     0.0848    72.7160
 5688.0000   -25.7679  -999.2500     8.0967     4.6308     5.3543     8.6035     0.1068     2.5316     0.0880    77.4601
 5688.5000   -23.6494  -999.2500     4.6209     3.6404     4.1659     8.5958     0.0988     2.4972     0.1063    84.2729
 5689.0000   -22.1980  -999.2500     3.1116     3.2615     3.3821     8.5889     0.0884     2.4670     0.1229    88.6348
 5689.5000   -21.8322  -999.2500     2.6098     3.0670     2.9330     8.5239     0.0939     2.4574     0.1318    90.9083
 5690.0000   -21.5074  -999.2500     2.6428     3.0264     2.6098     8.4281     0.1137     2.4654     0.1280    90.9112
 5690.5000   -21.2896  -999.2500     2.7334     3.0485     2.5925     8.3751     0.1389     2.4804     0.1209    91.2154
 5691.0000   -21.1484  -999.2500     2.7244     3.0673     2.5619     8.4241     0.1147     2.4781     0.1188    91.8018
 5691.5000   -21.0065  -999.2500     2.7083     3.0828     2.6903     8.4969     0.0782     2.4724     0.1240    91.9019
 5692.0000   -20.8009  -999.2500     2.8318     3.0664     2.8663     8.5652     0.0537     2.4783     0.1179    90.5365
 5692.5000   -20.6430  -999.2500     2.9709     3.0547     3.0539     8.5621     0.0612     2.5036     0.1032  -999.2500
 5693.0000   -20.6597  -999.2500     2.9985     3.0620     3.1678     8.4406     0.0809     2.5361     0.0872  -999.2500
 5693.5000   -20.3967  -999.2500     2.9985     3.0684     3.2169     8.3186     0.1075     2.5314     0.0868  -999.2500
 5694.0000   -20.1337  -999.2500     2.9985     3.0749     3.2568     8.1599     0.1446     2.4902     0.1164  -999.2500
 5694.5000  -999.2500  -999.2500  -999.2500  -999.2500  -999.2500     7.7982     0.1851     2.4224     0.1658  -999.2500
 5695.0000  -999.2500  -999.2500  -999.2500  -999.2500  -999.2500     7.2380     0.2140     2.3335     0.2096  -999.2500
 5695.5000  -999.2500  -999.2500  -999.2500  -999.2500  -999.2500     6.8766     0.2183     2.2462     0.2642  -999.2500
 5696.0000  -999.2500  -999.2500  -999.2500  -999.2500  -999.2500     6.5502     0.2131     2.1923     0.2794  -999.2500
