~VERSION INFORMATION
 VERS.                2.0:   CWLS LOG ASCII STANDARD - VERSION 2.0
 WRAP.                 NO:   ONE LINE PER DEPTH STEP
~WELL INFORMATION
#MNEM.UNIT      DATA TYPE    INFORMATION
#----------   ------------   ------------------------------
 STRT.F          542.0000:   START DEPTH
 STOP.F         5696.0000:   STOP DEPTH
 STEP.F            0.5000:   STEP LENGTH
 NULL.          -999.2500:   NO VALUE
 COMP.       DAVIS OIL CO:   COMPANY
 WELL. WEST TEAPOT DOME STATE #1-16:   WELL
 FLD .             TEAPOT:   FIELD
 LOC .      S16 T38N R78W:   LOCATION
 CNTY.            NATRONA:   COUNTY
 STAT.            WYOMING:   STATE
 CTRY. UNITED STATES OF AMERICA:   COUNTRY
 SRVC.       Schlumberger:   SERVICE COMPANY
 DATE.        24-MAR-1981:   LOGDATE
 API .       490252131000:   API NUMBER
~CURVE INFORMATION
#MNEM.UNIT       API CODE    CURVE DESCRIPTION
#----------   ------------   ------------------------------
 DEPT.F                  :   
 SPR .MV     07 010 01 00:   SPONTANEOUS POTENTIAL
 GRR .GAPI   07 310 01 00:   GAMMA RAY FROM RES. LOG.
 SFL .OHMM   07 220 01 00:   SHALLOW FOCUSED LOG RESISTIVITY
 ILD .OHMM   07 120 46 00:   INDUCTION LOG DEEP
 ILM .OHMM   07 120 44 00:   INDUCTION LOG MEDIUM
 CALD.IN     45 280 60 00:   CALIPER
 CORR.G/C3   45 356 01 00:   DENSITY CORRECTION
 RHOB.G/C3   45 350 01 00:   BULK DENSITY
 DPHI.DEC    45 890 12 00:   DENSITY POROSITY SANDSTONE
 DT  .US/F   60 520 00 00:   INTERVAL TRANSIT TIME
~PARAMETER INFORMATION
#MNEM.UNIT          VALUE    DESCRIPTION
#----------   ------------   ------------------------------
 PD  .                 GL:   PERMANENT DATUM
 EPD .F              5359:   ELEVATION PERMANENT DATUM
 LMF .                 KB:   LOG MEASURED FROM
 DAPD.F                10:   FEET ABOVE PERMANENT DATUM
 DMF .                 KB:   DRILLING MEASURED FROM
 EKB .F              5369:   KELLING BUSHING
 EGL .F              5359:   GROUND LEVEL
 DATE.            3-24-81:   RUN DATE
 RUN .                  1:   RUN NUMBER
 DD  .F              5700:   DEPTH DRILLER
 DL  .F              5700:   DEPTH LOGGER
 BLI .F              5694:   BOTTOM LOG INTERVAL
 TLI .F               559:   TOP LOG INTERVAL
 CS  .IN            9.625:   CASING SIZE
 CBD .F               554:   CASING BOTTOM DRILLER
 CBL .F               559:   CASING BOTTOM LOGGER
 BS  .IN             8.25:   BIT SIZE
 BSD .F              5700:   BIT SIZE AT DEPTH
 DFT .          DISPERSED:   DRILLING FLUID TYPE
 DFD .                9.7:   DRILLING FLUID DENSITY
 DFV .                 50:   DRILLING FLUID VISCOSITY
 DFPH.                8.5:   DRILLING FLUID PH
 DFL .                 10:   DRILLING FLUID LOSS
 MSS .            MUDTANK:   MUD SAMPLE SOURCE
 RMS .OHMM           2.34:   RESISTIVITY MUD SAMPLE
 MST .F                58:   MUD SAMPLE TEMPERATURE
 RMF .OHMM           1.67:   RESISTIVITY MUD FILTRATE SAMPLE
 MFST.F                65:   MUD FILTRATE SAMPLE TEMPERATURE
 MFSS.               MEAS:   MUD FILTRATE SAMPLE SOURCE
 RMB .OHMM            .98:   RESISTIVITY MUD AT BHT
 BHT .F               147:   BOTTOM HOLE TEMPERATURE
 TCS .HRS            2030:   TIME CURCULATED STOPPED
 TLAB.HRS            0100:   TIME LOGGER AT BOTTOM
 MRT .F               147:   MAXIMUM RECORDED TEMPERATURE
 LUN .               8035:   LOGGING UNIT NUMBER
 LUL .               CSPR:   LOGGING UNIT LOCATION
 ENGI.            BEATTIE:   RECORDING ENGINEER
 WITN.            TAUCHER:   WITNESSED BY
 CLNT.            A2DTECH:   CLIENT CODE
 ORIG.           5" PRINT:   ORIGIN OF DATA
 UWI .       490252131000:   UNIQUE WELL ID
 DICO. A2D Technologies, Inc.:   DIGITIZING COMPANY
~OTHER INFORMATION
~A   DEPT      SPR         GRR       SFL        ILD        ILM       CALD       CORR       RHOB       DPHI         DT   
# ...
 1949.0000   -26.6487    85.8457     7.4961     9.4160     8.3477  -999.2500  -999.2500  -999.2500  -999.2500  -999.2500
 1949.5000   -26.7194    89.0530     7.5022     9.3137     8.2677  -999.2500  -999.2500  -999.2500  -999.2500  -999.2500
 1950.0000   -26.7897    91.8429     7.5557     9.2124     8.1882  -999.2500  -999.2500  -999.2500  -999.2500  -999.2500
 1950.5000   -26.8606    93.8660     7.6367     9.1123     8.1452  -999.2500  -999.2500  -999.2500  -999.2500  -999.2500
 1951.0000   -26.9299    92.8587     7.5862     9.0220     8.1341  -999.2500  -999.2500  -999.2500  -999.2500  -999.2500
 1951.5000   -26.8717    90.9579     7.4848     9.0107     8.1229  -999.2500  -999.2500  -999.2500  -999.2500  -999.2500
 1952.0000   -26.7942    88.6395     7.3842     9.0003     8.1118  -999.2500  -999.2500  -999.2500  -999.2500  -999.2500
 1952.5000   -26.6742    86.3936     7.2919     8.9900     8.1006  -999.2500  -999.2500  -999.2500  -999.2500  -999.2500
 1953.0000   -26.4089    84.1673     7.2862     8.9796     8.0895  -999.2500  -999.2500  -999.2500  -999.2500  -999.2500
 1953.5000   -26.1487    83.0700     7.2796     8.9693     8.0784  -999.2500  -999.2500  -999.2500  -999.2500  -999.2500
 1954.0000   -25.8889    83.4797     7.2730     8.9590     8.0673  -999.2500  -999.2500  -999.2500  -999.2500  -999.2500
 1954.5000   -25.6288    82.9702     7.2665     8.9487     8.0562  -999.2500  -999.2500  -999.2500  -999.2500  -999.2500
 1955.0000   -25.3688    80.9975     7.2599     8.9384     8.0452  -999.2500  -999.2500  -999.2500  -999.2500  -999.2500
 1955.5000   -25.1090    79.1407     7.2534     8.9282     8.0342  -999.2500  -999.2500  -999.2500  -999.2500  -999.2500
 1956.0000   -24.8469    79.5328     7.2468     8.9179     8.0231  -999.2500  -999.2500  -999.2500  -999.2500  -999.2500
 1956.5000   -24.7277    80.9866     7.2403     8.9076     8.0122  -999.2500  -999.2500  -999.2500  -999.2500  -999.2500
 1957.0000   -24.6871    80.8983     7.2338     8.8974     7.9995  -999.2500  -999.2500  -999.2500  -999.2500  -999.2500
 1957.5000   -24.6474    80.7424     7.2261     8.8872     8.0065  -999.2500  -999.2500  -999.2500  -999.2500  -999.2500
 1958.0000   -24.6091    81.4744     7.2322     8.8770     8.0156  -999.2500  -999.2500  -999.2500  -999.2500  -999.2500
 1958.5000   -24.5698    87.0951     7.2442     8.8670     8.0247  -999.2500  -999.2500  -999.2500  -999.2500  -999.2500
 1959.0000   -24.7050    92.7719     7.2563     8.8569     8.0338  -999.2500  -999.2500  -999.2500  -999.2500  -999.2500
 1959.5000   -24.8076    96.4273     7.2684     8.8798     8.0429  -999.2500  -999.2500  -999.2500  -999.2500  -999.2500
 1960.0000   -24.8773    96.7816     7.2806     8.9034     8.0521  -999.2500  -999.2500  -999.2500  -999.2500  -999.2500
 1960.5000   -24.9521    92.2482     7.2928     8.9271     8.0612  -999.2500  -999.2500  -999.2500  -999.2500  -999.2500
 1961.0000   -25.1301    88.8193     7.3050     8.9508     8.0704  -999.2500  -999.2500  -999.2500  -999.2500  -999.2500
 1961.5000   -25.3159    85.2707     7.3172     8.9746     8.0796  -999.2500  -999.2500  -999.2500  -999.2500  -999.2500
 1962.0000   -25.5058    81.4473     7.3295     8.9985     8.0888  -999.2500  -999.2500  -999.2500  -999.2500  -999.2500
 1962.5000   -25.5214    77.6355     7.3418     9.0224     8.0980  -999.2500  -999.2500  -999.2500  -999.2500  -999.2500
 1963.0000   -25.4904    78.6075     7.3548     9.0464     8.1072  -999.2500  -999.2500  -999.2500  -999.2500  -999.2500
 1963.5000   -25.4577    79.0218     7.4530     9.0703     8.1164  -999.2500  -999.2500  -999.2500  -999.2500  -999.2500
 1964.0000   -25.4251    78.6798     7.6267     9.1058     8.1256  -999.2500  -999.2500  -999.2500  -999.2500  -999.2500
 1964.5000   -25.3927    78.3125     7.8043     9.0969     8.1348  -999.2500  -999.2500  -999.2500  -999.2500  -999.2500
 1965.0000   -25.3603    79.4231     7.8524     9.0801     8.1486  -999.2500  -999.2500  -999.2500  -999.2500  -999.2500
 1965.5000   -25.3279    81.5589     7.6244     9.0635     8.1315  -999.2500  -999.2500  -999.2500  -999.2500  -999.2500
 1966.0000   -25.2955    83.6759     7.4265     9.0466     8.0985  -999.2500  -999.2500  -999.2500  -999.2500  -999.2500
 1966.5000   -25.2630    84.3878     7.2919     9.0288     8.0657  -999.2500  -999.2500  -999.2500  -999.2500  -999.2500
 1967.0000   -25.2305    82.0107     7.3604     8.9446     8.0330  -999.2500  -999.2500  -999.2500  -999.2500  -999.2500
 1967.5000   -25.1988    79.6103     7.4615     8.7916     8.0005  -999.2500  -999.2500  -999.2500  -999.2500  -999.2500
 1968.0000   -25.1671    77.8426     7.5638     8.6413     7.9681  -999.2500  -999.2500  -999.2500  -999.2500  -999.2500
 1968.5000   -25.2929    79.6484     7.6382     8.4935     7.9254  -999.2500  -999.2500  -999.2500  -999.2500  -999.2500
 1969.0000   -25.5896    84.5631     7.5697     8.2997     7.9384  -999.2500  -999.2500  -999.2500  -999.2500  -999.2500
 1969.5000   -26.0861    89.8633     7.4709     8.2993     7.9576  -999.2500  -999.2500  -999.2500  -999.2500  -999.2500
 1970.0000   -26.8152    93.8786     7.3733     8.5941     7.9769  -999.2500  -999.2500  -999.2500  -999.2500  -999.2500
 1970.5000   -27.5425    93.3306     7.2770     8.8778     7.9962  -999.2500  -999.2500  -999.2500  -999.2500  -999.2500
 1971.0000   -28.2692    90.0218     7.2247     9.1700     8.4040  -999.2500  -999.2500  -999.2500  -999.2500  -999.2500
 1971.5000   -29.0593    83.9647     7.4535     9.5015     8.9047  -999.2500  -999.2500  -999.2500  -999.2500  -999.2500
 1972.0000   -30.2280    80.3583     8.6847    10.0287     9.4353  -999.2500  -999.2500  -999.2500  -999.2500  -999.2500
 1972.5000   -31.8575    71.4894    10.3438    10.5852     9.9975  -999.2500  -999.2500  -999.2500  -999.2500  -999.2500
 1973.0000   -33.4841    69.9065    12.3197    11.1741    10.5932  -999.2500  -999.2500  -999.2500  -999.2500  -999.2500
 1973.5000   -34.8989    70.9774    13.4328    11.9117    11.2244  -999.2500  -999.2500  -999.2500  -999.2500  -999.2500
 1974.0000   -36.1991    72.5794    13.1581    11.9097    11.5836  -999.2500  -999.2500  -999.2500  -999.2500  -999.2500
 1974.5000   -37.4436    73.6735    12.5184    11.9124    11.4518  -999.2500  -999.2500  -999.2500  -999.2500  -999.2500
 1975.0000   -37.4833    74.7589    11.9098    11.5452    11.2387  -999.2500  -999.2500  -999.2500  -999.2500  -999.2500
 1975.5000   -37.4739    75.8245    11.7285    11.2543    11.0297  -999.2500  -999.2500  -999.2500  -999.2500  -999.2500
 1976.0000   -37.2478    76.0451    11.3413    11.2082    10.8245  -999.2500  -999.2500  -999.2500  -999.2500  -999.2500
 1976.5000   -36.6516    73.6668    10.9148    11.1626    10.6231  -999.2500  -999.2500  -999.2500  -999.2500  -999.2500
 1977.0000   -36.1728    72.4830    10.5042    10.8431    10.4255  -999.2500  -999.2500  -999.2500  -999.2500  -999.2500
 1977.5000   -35.8937    74.9213    10.1092    10.5271    10.2316  -999.2500  -999.2500  -999.2500  -999.2500  -999.2500
 1978.0000   -35.6103    78.6769     9.7289    10.2480    10.0412  -999.2500  -999.2500  -999.2500  -999.2500  -999.2500
 1978.5000   -35.5159    82.8415     9.2743    10.1142     9.8544  -999.2500  -999.2500  -999.2500  -999.2500  -999.2500
 1979.0000   -35.6956    86.6970     9.2746    10.0819     9.6248  -999.2500  -999.2500  -999.2500  -999.2500  -999.2500
 1979.5000   -35.8815    86.8831     9.3618    10.0819     9.6264  -999.2500  -999.2500  -999.2500  -999.2500  -999.2500
 1980.0000   -36.0213    85.5728     9.3041    10.0819     9.6252  -999.2500  -999.2500  -999.2500  -999.2500  -999.2500
 1980.5000   -36.3861    81.5746     9.2431    10.1198     9.6258  -999.2500  -999.2500  -999.2500  -999.2500  -999.2500
 1981.0000   -36.9384    79.3669     9.1902    10.1770     9.6259  -999.2500  -999.2500  -999.2500  -999.2500  -999.2500
 1981.5000   -37.4942    77.5780     9.1901    10.0442     9.6553  -999.2500  -999.2500  -999.2500  -999.2500  -999.2500
 1982.0000   -38.0132    77.6755     9.4553     9.9296     9.6871  -999.2500  -999.2500  -999.2500  -999.2500  -999.2500
