~VERSION INFORMATION
 VERS.                2.0:   CWLS LOG ASCII STANDARD - VERSION 2.0
 WRAP.                 NO:   ONE LINE PER DEPTH STEP
~WELL INFORMATION
#MNEM.UNIT      DATA TYPE    INFORMATION
#----------   ------------   ------------------------------
 STRT.F          542.0000:   START DEPTH
 STOP.F         5696.0000:   STOP DEPTH
 STEP.F            0.5000:   STEP LENGTH
 NULL.          -999.2500:   NO VALUE
 COMP.       DAVIS OIL CO:   COMPANY
 WELL. WEST TEAPOT DOME STATE #1-16:   WELL
 FLD .             TEAPOT:   FIELD
 LOC .      S16 T38N R78W:   LOCATION
 CNTY.            NATRONA:   COUNTY
 STAT.            WYOMING:   STATE
 CTRY. UNITED STATES OF AMERICA:   COUNTRY
 SRVC.       Schlumberger:   SERVICE COMPANY
 DATE.        24-MAR-1981:   LOGDATE
 API .       490252131000:   API NUMBER
~CURVE INFORMATION
#MNEM.UNIT       API CODE    CURVE DESCRIPTION
#----------   ------------   ------------------------------
 DEPT.F                  :   
 SPR .MV     07 010 01 00:   SPONTANEOUS POTENTIAL
 GRR .GAPI   07 310 01 00:   GAMMA RAY FROM RES. LOG.
 SFL .OHMM   07 220 01 00:   SHALLOW FOCUSED LOG RESISTIVITY
 ILD .OHMM   07 120 46 00:   INDUCTION LOG DEEP
 ILM .OHMM   07 120 44 00:   INDUCTION LOG MEDIUM
 CALD.IN     45 280 60 00:   CALIPER
 CORR.G/C3   45 356 01 00:   DENSITY CORRECTION
 RHOB.G/C3   45 350 01 00:   BULK DENSITY
 DPHI.DEC    45 890 12 00:   DENSITY POROSITY SANDSTONE
 DT  .US/F   60 520 00 00:   INTERVAL TRANSIT TIME
~PARAMETER INFORMATION
#MNEM.UNIT          VALUE    DESCRIPTION
#----------   ------------   ------------------------------
 PD  .                 GL:   PERMANENT DATUM
 EPD .F              5359:   ELEVATION PERMANENT DATUM
 LMF .                 KB:   LOG MEASURED FROM
 DAPD.F                10:   FEET ABOVE PERMANENT DATUM
 DMF .                 KB:   DRILLING MEASURED FROM
 EKB .F              5369:   KELLING BUSHING
 EGL .F              5359:   GROUND LEVEL
 DATE.            3-24-81:   RUN DATE
 RUN .                  1:   RUN NUMBER
 DD  .F              5700:   DEPTH DRILLER
 DL  .F              5700:   DEPTH LOGGER
 BLI .F              5694:   BOTTOM LOG INTERVAL
 TLI .F               559:   TOP LOG INTERVAL
 CS  .IN            9.625:   CASING SIZE
 CBD .F               554:   CASING BOTTOM DRILLER
 CBL .F               559:   CASING BOTTOM LOGGER
 BS  .IN             8.25:   BIT SIZE
 BSD .F              5700:   BIT SIZE AT DEPTH
 DFT .          DISPERSED:   DRILLING FLUID TYPE
 DFD .                9.7:   DRILLING FLUID DENSITY
 DFV .                 50:   DRILLING FLUID VISCOSITY
 DFPH.                8.5:   DRILLING FLUID PH
 DFL .                 10:   DRILLING FLUID LOSS
 MSS .            MUDTANK:   MUD SAMPLE SOURCE
 RMS .OHMM           2.34:   RESISTIVITY MUD SAMPLE
 MST .F                58:   MUD SAMPLE TEMPERATURE
 RMF .OHMM           1.67:   RESISTIVITY MUD FILTRATE SAMPLE
 MFST.F                65:   MUD FILTRATE SAMPLE TEMPERATURE
 MFSS.               MEAS:   MUD FILTRATE SAMPLE SOURCE
 RMB .OHMM            .98:   RESISTIVITY MUD AT BHT
 BHT .F               147:   BOTTOM HOLE TEMPERATURE
 TCS .HRS            2030:   TIME CURCULATED STOPPED
 TLAB.HRS            0100:   TIME LOGGER AT BOTTOM
 MRT .F               147:   MAXIMUM RECORDED TEMPERATURE
 LUN .               8035:   LOGGING UNIT NUMBER
 LUL .               CSPR:   LOGGING UNIT LOCATION
 ENGI.            BEATTIE:   RECORDING ENGINEER
 WITN.            TAUCHER:   WITNESSED BY
 CLNT.            A2DTECH:   CLIENT CODE
 ORIG.           5" PRINT:   ORIGIN OF DATA
 UWI .       490252131000:   UNIQUE WELL ID
 DICO. A2D Technologies, Inc.:   DIGITIZING COMPANY
~OTHER INFORMATION
~A   DEPT      SPR         GRR       SFL        ILD        ILM       CALD       CORR       RHOB       DPHI         DT   
# ...
 3959.0000   -20.1658   106.8529    10.6479    10.2831     9.9899    10.0025     0.0254     2.5750     0.0696    79.9900
 3959.5000   -20.3195   104.1073    12.0478    10.3834    10.2703     9.9895     0.0226     2.5749     0.0688    80.6782
 3960.0000   -20.4739   106.2654    13.5676    10.4846    10.2703     9.9836     0.0159     2.5480     0.0795    83.5435
 3960.5000   -20.6283   118.3963    14.8726    10.5869    10.2703     9.9836     0.0094     2.5264     0.0916    86.8074
 3961.0000   -20.7829   130.3322    14.4716    10.6901    10.2703     9.9836     0.0107     2.5037     0.1037    88.8513
 3961.5000   -20.9402   141.1858    13.9945    10.7944    10.2703     9.9836     0.0113     2.4832     0.1141    89.8999
 3962.0000   -20.9736   142.6252    13.6366    10.8568    10.2416     9.9846     0.0087     2.4722     0.1223    89.5395
 3962.5000   -20.9745   136.7792    13.3536    10.8082    10.1945     9.9934     0.0038     2.4712     0.1252    88.6570
 3963.0000   -20.9743   129.3021    12.9247    10.6889     9.9835    10.0023     0.0007     2.4740     0.1230    87.8312
 3963.5000   -20.9742   122.8677    12.2892    10.5706    10.0815    10.0112     0.0003     2.4769     0.1209    86.7284
 3964.0000   -20.9746   121.6850    11.8065    10.4535    10.2641    10.0201    -0.0001     2.4774     0.1204    85.9343
 3964.5000   -20.9753   123.1674    12.5865    10.3379    10.1367    10.0290    -0.0001     2.4761     0.1224    85.5956
 3965.0000   -20.9714   125.1219    13.4359    10.2235    10.0182    10.0385     0.0088     2.4798     0.1198    86.5966
 3965.5000   -20.8578   128.1632    13.8110    10.1757     9.8985    10.0529     0.0269     2.4913     0.1141    87.2973
 3966.0000   -20.4281   131.5910    12.9892    10.2082     9.8060    10.0682     0.0409     2.4977     0.1079    87.3298
 3966.5000   -19.9970   136.4747    12.0137    10.2362     9.9420    10.1730     0.0287     2.4841     0.1182    86.8036
 3967.0000   -19.8493   142.7984    12.0252    10.2700    10.0819    10.1444     0.0121     2.4706     0.1255    85.8838
 3967.5000   -19.7103   147.2700    12.4493    10.2307     9.8970    10.0840     0.0028     2.4716     0.1226    84.7438
 3968.0000   -19.5860   146.7472    13.0452    10.1782     9.8298    10.0982     0.0068     2.4878     0.1161    83.8677
 3968.5000   -19.6324   141.8606    13.5577    10.1260     9.7604    10.1151     0.0125     2.5032     0.1060    83.6937
 3969.0000   -19.6804   137.0688    12.8203    10.0761     9.5372    10.1374     0.0183     2.5130     0.0994    83.6937
 3969.5000   -19.7271   131.7592    11.9003    10.0375     9.5156    10.1789     0.0243     2.5211     0.0947    84.0766
 3970.0000   -19.7746   129.2039    11.0597     9.9990     9.4494    10.2183     0.0344     2.5287     0.0910    84.5946
 3970.5000   -19.9631   136.8893    11.1353     9.9612     9.3672    10.2012     0.0381     2.5313     0.0884    84.8637
 3971.0000   -20.1746   144.5070    11.2385     9.9237     9.2726    10.1813     0.0358     2.5193     0.0971    84.8990
 3971.5000   -20.3867   148.6840    11.3425     9.8432     9.2791    10.1610     0.0259     2.5037     0.1065    85.0928
 3972.0000   -20.5986   146.1318    11.6857     9.6769     9.1840    10.1376     0.0160     2.4929     0.1128    84.6567
 3972.5000   -20.8098   143.5781    12.3590     9.5131     9.1059    10.1212     0.0098     2.4992     0.1073    84.2556
 3973.0000   -21.0171   141.0287    12.3590     9.3529     9.0220    10.1215     0.0116     2.5214     0.0954    84.5305
 3973.5000   -21.1962   137.1581    11.4525     9.2486     8.8565    10.1214     0.0185     2.5426     0.0838    84.5115
 3974.0000   -21.3638   132.5427    10.5649     9.1905     8.9388    10.1215     0.0200     2.5558     0.0799    84.2665
 3974.5000   -21.2448   127.9159     9.9890     8.9377     8.5099    10.1215     0.0191     2.5483     0.0800    83.9940
 3975.0000   -21.1156   123.3711    10.1372     8.6940     8.3008    10.1249     0.0125     2.5363     0.0848    84.2067
 3975.5000   -20.9878   121.7143    10.3518     8.0691     7.7352    10.1316     0.0093     2.5241     0.0900    84.3944
 3976.0000   -20.8602   121.9053    10.4622     7.5402     7.2546    10.1383     0.0103     2.5183     0.0910    85.0951
 3976.5000   -20.7328   122.0766     8.8132     7.0460     6.8040    10.1450     0.0208     2.5243     0.0890    87.2798
 3977.0000   -20.6075   121.5106     7.5967     6.8979     6.3813    10.1517     0.0482     2.5312     0.0872    89.1992
 3977.5000   -20.4325   120.2505     6.5481     6.9382     6.0595    10.1595     0.0627     2.5220     0.0900    88.6487
 3978.0000   -20.2480   117.3742     6.0037     6.9836     6.4256    10.1214     0.0618     2.5099     0.0999    87.3974
 3978.5000   -20.0623   114.8043     6.5417     7.0267     6.9621    10.0998     0.0357     2.4962     0.1088    85.3028
 3979.0000   -19.9994   116.7620     7.8404     7.0579     6.8907    10.0960     0.0206     2.5054     0.1052    84.2042
 3979.5000   -20.1223   119.1130    10.0021     7.0935     6.7714    10.0925     0.0191     2.5193     0.0961    84.2833
 3980.0000   -20.2458   117.9056     9.9991     7.1309     6.8945    10.0890     0.0272     2.5333     0.0871    84.7891
 3980.5000   -20.3764   111.9037     9.2447     7.2615     7.1687    10.0855     0.0314     2.5473     0.0804    84.4924
 3981.0000   -20.6206   107.3208     8.5866     7.6783     7.4539    10.0821     0.0310     2.5582     0.0724    83.6691
 3981.5000   -20.8805   105.8597     7.9764     8.1189     7.5817    10.0820     0.0286     2.5633     0.0706    82.9147
 3982.0000   -21.1407   104.9147     7.7800     8.5848     7.8397    10.0821     0.0233     2.5401     0.0819    82.1607
 3982.5000   -21.3862   104.0512     9.3674     8.8565     8.3163    10.0820     0.0090     2.5223     0.0933    81.4057
 3983.0000   -21.5236   102.1754    10.8740     8.7796     8.6976    10.0821     0.0044     2.5231     0.0944    81.1912
 3983.5000   -21.6595    99.9159    12.9519     8.6940     8.6710    10.0821     0.0037     2.5309     0.0883    81.5543
 3984.0000   -21.7960    97.6790    12.9533     8.7310     8.6398    10.0809     0.0038     2.5356     0.0863    82.1599
 3984.5000   -21.9326    98.4561    11.7170     8.7751     8.6117    10.1191     0.0029     2.5293     0.0892    82.6214
 3985.0000   -22.0669   100.5917    10.6366     8.9317     8.4817    10.1431     0.0039     2.5299     0.0888    82.6927
 3985.5000   -22.1293   102.7071     9.6552     9.0866     8.3757    10.1473     0.0047     2.5394     0.0849    82.6927
 3986.0000   -21.9637   103.3407     8.7749     9.2458     8.6087    10.1515     0.0039     2.5433     0.0828    82.6714
 3986.5000   -21.7878   103.9141     9.1532     9.4732     8.8418    10.1556     0.0026     2.5216     0.0956    82.6498
 3987.0000   -21.6179   107.7907    10.3943     9.7221     9.0817    10.1597     0.0013     2.4975     0.1090    82.6283
 3987.5000   -21.4484   109.6326    11.9683     9.9775     9.2740    10.1628     0.0045     2.4902     0.1136    82.6067
 3988.0000   -21.2791   108.6084    13.7807    10.0819     9.2783    10.1656     0.0096     2.5011     0.1112    82.5262
 3988.5000   -21.1097   102.6478    15.0109     9.9890     9.2760    10.1684     0.0156     2.5191     0.0963    82.0296
 3989.0000   -20.9404   100.8230    13.1791    10.0090     9.6468    10.1712     0.0150     2.5266     0.0908    81.5034
 3989.5000   -20.7710    99.4459    11.5586    10.0604     9.8970    10.1740     0.0142     2.5245     0.0923    80.7896
 3990.0000   -20.5842    98.2604    10.6577    10.0819     9.8440    10.1768     0.0157     2.5183     0.0950    80.7407
 3990.5000   -20.6664    98.4630    11.9332     9.5069     9.7536    10.1795     0.0211     2.5154     0.0978    81.1449
 3991.0000   -20.7577   101.6864    13.1322     8.9539     9.4616    10.1844     0.0263     2.5170     0.0984    82.3724
 3991.5000   -20.8478   107.6598    13.6838     8.4331     9.0353    10.1903     0.0298     2.5225     0.0931    83.9827
 3992.0000   -20.9377   115.3132    10.5038     7.9254     8.6283    10.1962     0.0302     2.5236     0.0924    84.6246
