~VERSION INFORMATION
 VERS.                2.0:   CWLS LOG ASCII STANDARD - VERSION 2.0
 WRAP.                 NO:   ONE LINE PER DEPTH STEP
~WELL INFORMATION
#MNEM.UNIT      DATA TYPE    INFORMATION
#----------   ------------   ------------------------------
 STRT.F          542.0000:   START DEPTH
 STOP.F         5696.0000:   STOP DEPTH
 STEP.F            0.5000:   STEP LENGTH
 NULL.          -999.2500:   NO VALUE
 COMP.       DAVIS OIL CO:   COMPANY
 WELL. WEST TEAPOT DOME STATE #1-16:   WELL
 FLD .             TEAPOT:   FIELD
 LOC .      S16 T38N R78W:   LOCATION
 CNTY.            NATRONA:   COUNTY
 STAT.            WYOMING:   STATE
 CTRY. UNITED STATES OF AMERICA:   COUNTRY
 SRVC.       Schlumberger:   SERVICE COMPANY
 DATE.        24-MAR-1981:   LOGDATE
 API .       490252131000:   API NUMBER
~CURVE INFORMATION
#MNEM.UNIT       API CODE    CURVE DESCRIPTION
#----------   ------------   ------------------------------
 DEPT.F                  :   
 SPR .MV     07 010 01 00:   SPONTANEOUS POTENTIAL
 GRR .GAPI   07 310 01 00:   GAMMA RAY FROM RES. LOG.
 SFL .OHMM   07 220 01 00:   SHALLOW FOCUSED LOG RESISTIVITY
 ILD .OHMM   07 120 46 00:   INDUCTION LOG DEEP
 ILM .OHMM   07 120 44 00:   INDUCTION LOG MEDIUM
 CALD.IN     45 280 60 00:   CALIPER
 CORR.G/C3   45 356 01 00:   DENSITY CORRECTION
 RHOB.G/C3   45 350 01 00:   BULK DENSITY
 DPHI.DEC    45 890 12 00:   DENSITY POROSITY SANDSTONE
 DT  .US/F   60 520 00 00:   INTERVAL TRANSIT TIME
~PARAMETER INFORMATION
#MNEM.UNIT          VALUE    DESCRIPTION
#----------   ------------   ------------------------------
 PD  .                 GL:   PERMANENT DATUM
 EPD .F              5359:   ELEVATION PERMANENT DATUM
 LMF .                 KB:   LOG MEASURED FROM
 DAPD.F                10:   FEET ABOVE PERMANENT DATUM
 DMF .                 KB:   DRILLING MEASURED FROM
 EKB .F              5369:   KELLING BUSHING
 EGL .F              5359:   GROUND LEVEL
 DATE.            3-24-81:   RUN DATE
 RUN .                  1:   RUN NUMBER
 DD  .F              5700:   DEPTH DRILLER
 DL  .F              5700:   DEPTH LOGGER
 BLI .F              5694:   BOTTOM LOG INTERVAL
 TLI .F               559:   TOP LOG INTERVAL
 CS  .IN            9.625:   CASING SIZE
 CBD .F               554:   CASING BOTTOM DRILLER
 CBL .F               559:   CASING BOTTOM LOGGER
 BS  .IN             8.25:   BIT SIZE
 BSD .F              5700:   BIT SIZE AT DEPTH
 DFT .          DISPERSED:   DRILLING FLUID TYPE
 DFD .                9.7:   DRILLING FLUID DENSITY
 DFV .                 50:   DRILLING FLUID VISCOSITY
 DFPH.                8.5:   DRILLING FLUID PH
 DFL .                 10:   DRILLING FLUID LOSS
 MSS .            MUDTANK:   MUD SAMPLE SOURCE
 RMS .OHMM           2.34:   RESISTIVITY MUD SAMPLE
 MST .F                58:   MUD SAMPLE TEMPERATURE
 RMF .OHMM           1.67:   RESISTIVITY MUD FILTRATE SAMPLE
 MFST.F                65:   MUD FILTRATE SAMPLE TEMPERATURE
 MFSS.               MEAS:   MUD FILTRATE SAMPLE SOURCE
 RMB .OHMM            .98:   RESISTIVITY MUD AT BHT
 BHT .F               147:   BOTTOM HOLE TEMPERATURE
 TCS .HRS            2030:   TIME CURCULATED STOPPED
 TLAB.HRS            0100:   TIME LOGGER AT BOTTOM
 MRT .F               147:   MAXIMUM RECORDED TEMPERATURE
 LUN .               8035:   LOGGING UNIT NUMBER
 LUL .               CSPR:   LOGGING UNIT LOCATION
 ENGI.            BEATTIE:   RECORDING ENGINEER
 WITN.            TAUCHER:   WITNESSED BY
 CLNT.            A2DTECH:   CLIENT CODE
 ORIG.           5" PRINT:   ORIGIN OF DATA
 UWI .       490252131000:   UNIQUE WELL ID
 DICO. A2D Technologies, Inc.:   DIGITIZING COMPANY
~OTHER INFORMATION
~A   DEPT      SPR         GRR       SFL        ILD        ILM       CALD       CORR       RHOB       DPHI         DT   
# ...
 4662.5000   -18.5578   180.8691     3.1067     2.8104     2.8801    12.0992     0.1348     2.5126     0.0984   100.3103
 4663.0000   -18.6720   194.7061     2.5237     2.7589     2.5149    12.2203     0.1807     2.4741     0.1155   104.7147
 4663.5000   -18.7878   196.5136     2.0506     2.7731     2.5302    12.3890     0.1616     2.3547     0.1795   101.7192
 4664.0000   -18.9344   181.9221     1.9016     2.8053     2.7090    12.2963     0.1059     2.2512     0.2482    97.7077
 4664.5000   -19.0830   150.3806     2.6279     3.0087     3.1357    11.9786     0.0048     2.2099     0.2846    84.7838
 4665.0000   -19.2317   133.6299     4.0533     3.2621     3.6084    11.8719    -0.0101     2.2764     0.2252    76.5916
 4665.5000   -19.3829   122.1109     6.2544     3.6459     4.0983    11.7910     0.0012     2.4283     0.1437    73.6837
 4666.0000   -19.5596   117.1670     7.3597     4.2364     4.6319    11.7376     0.0218     2.5500     0.0879    74.6891
 4666.5000   -19.7428   114.9086     7.2596     4.9226     5.2351    11.7327     0.0265     2.5745     0.0642    76.4738
 4667.0000   -19.7810   115.7945     7.1048     5.7199     5.8935    11.7271     0.0291     2.5711     0.0657    76.9784
 4667.5000   -19.7803   118.9410     6.9533     6.3081     6.2123    11.7223     0.0271     2.5688     0.0672    77.3326
 4668.0000   -19.7796   125.5856     6.8344     6.5281     6.3675    11.7182     0.0253     2.5681     0.0672    77.5148
 4668.5000   -19.5231   132.5312     6.7090     6.5079     6.4601    11.6957     0.0241     2.5648     0.0689    77.9389
 4669.0000   -19.0662   138.7367     6.7712     6.4859     6.5540    11.6712     0.0267     2.5641     0.0700    78.1211
 4669.5000   -18.6047   139.8952     6.9201     6.4641     6.6472    11.6445     0.0290     2.5648     0.0692    78.1809
 4670.0000   -18.5186   139.2394     7.0721     6.5816     6.7432    11.6153     0.0353     2.5733     0.0646    78.1428
 4670.5000   -18.4506   138.8287     7.2247     6.7263     6.9008    11.5864     0.0399     2.5853     0.0589    78.1046
 4671.0000   -18.3709   139.3545     7.4029     6.8741     7.0620    11.5580     0.0405     2.5819     0.0584    77.8058
 4671.5000   -18.2227   139.9774     7.6157     6.9621     7.2919    11.5174     0.0355     2.5769     0.0616    77.0728
 4672.0000   -18.3116   138.4154     7.9297     6.9893     7.2627    11.4789     0.0285     2.5705     0.0657    76.2975
 4672.5000   -18.4766   133.9587     8.2568     7.0163     7.1924    11.4302     0.0153     2.5640     0.0693    75.8559
 4673.0000   -18.6765   131.7699     8.5364     7.0268     7.1228    11.3830     0.0091     2.5617     0.0729    76.3523
 4673.5000   -18.9900   134.2362     8.2983     6.8973     7.0539    11.3365     0.0049     2.5523     0.0764    77.4700
 4674.0000   -19.3040   139.1980     7.7427     6.7919     6.9421    11.3022     0.0052     2.5452     0.0800    78.7506
 4674.5000   -19.4085   144.1316     7.2247     6.7714     6.8331    11.2933     0.0116     2.5471     0.0797    79.8418
 4675.0000   -19.4630   147.6840     6.7417     6.9621     6.8021    11.2824     0.0138     2.5508     0.0792    79.8821
 4675.5000   -19.5145   145.0897     6.4651     7.0266     6.7706    11.2710     0.0157     2.5549     0.0761    79.1936
 4676.0000   -19.5681   138.7780     6.7476     7.1343     6.8712    11.2515     0.0170     2.5587     0.0727    77.9880
 4676.5000   -19.5824   132.0656     7.4891     7.3531     7.1298    11.2062     0.0183     2.5725     0.0651    75.4855
 4677.0000   -19.5838   128.8479     8.1916     7.5786     7.3983    11.1922     0.0242     2.5871     0.0551    73.8378
 4677.5000   -19.5772   127.2823     8.9600     7.8109     7.6770    11.1795     0.0282     2.6004     0.0481    73.1965
 4678.0000   -19.4431   125.0022     9.8006     8.0505     7.9803    11.1651     0.0311     2.6048     0.0449    73.2055
 4678.5000   -19.3116   122.1320    10.0819     8.3008     8.3190    11.1192     0.0274     2.5980     0.0489    73.3834
 4679.0000   -19.1812   121.3041     9.8371     8.3780     8.5345    11.0686     0.0243     2.5855     0.0584    74.3844
 4679.5000   -19.0509   120.4631     9.5341     8.3348     8.5266    11.0556     0.0219     2.5727     0.0660    74.8622
 4680.0000   -18.9207   119.7162     9.2404     8.2800     8.4829    11.0441     0.0229     2.5602     0.0717    75.3232
 4680.5000   -18.7906   120.5094     8.9557     8.2255     8.4395    11.0325     0.0230     2.5481     0.0768    75.6554
 4681.0000   -18.6607   123.5325     8.6798     8.1714     8.3963    11.0109     0.0195     2.5445     0.0800    75.5135
 4681.5000   -18.5149   127.4610     8.4129     8.1177     8.3533    10.9813     0.0167     2.5544     0.0773    75.2465
 4682.0000   -18.3495   129.2027     8.2987     8.0643     8.3105    10.9540     0.0172     2.5656     0.0714    74.9485
 4682.5000   -18.1836   128.6139     8.5340     8.0112     8.2680    10.9284     0.0175     2.5685     0.0666    74.9850
 4683.0000   -18.0143   123.7090     8.7799     7.9586     8.2257    10.9028     0.0233     2.5672     0.0671    75.4144
 4683.5000   -18.1034   120.3773     8.9388     7.9062     8.1836    10.8771     0.0307     2.5764     0.0638    76.1861
 4684.0000   -18.2333   119.5649     8.8266     7.8524     8.1321    10.8516     0.0386     2.5845     0.0584    76.5518
 4684.5000   -18.3557   122.5292     8.5261     7.7285     8.0325    10.8277     0.0393     2.5861     0.0560    76.7385
 4685.0000   -18.7171   126.3604     8.2236     7.6021     7.9342    10.8167     0.0285     2.5817     0.0597    77.0954
 4685.5000   -19.1112   130.1895     8.2265     7.4777     7.8371    10.8052     0.0176     2.5710     0.0663    77.4394
 4686.0000   -19.5114   133.4656     8.2278     7.3553     7.7411    10.7941     0.0114     2.5583     0.0745    77.6972
 4686.5000   -19.5873   135.7955     7.9907     7.2350     7.6463    10.7647     0.0070     2.5441     0.0814    77.7736
 4687.0000   -19.6166   136.0424     7.7083     7.1581     7.5337    10.7331     0.0109     2.5402     0.0827    77.8500
 4687.5000   -19.6435   136.0582     7.7083     7.1976     7.3193    10.7263     0.0147     2.5452     0.0806    77.9594
 4688.0000   -19.6707   135.7199     7.7083     7.2247     7.1790    10.7197     0.0160     2.5501     0.0772    78.0881
 4688.5000   -19.6982   135.1747     7.5438     7.1837     7.0966    10.7129     0.0152     2.5473     0.0794    77.8908
 4689.0000   -19.7260   134.6327     7.3583     7.1483     7.0151    10.7060     0.0117     2.5432     0.0813    77.7103
 4689.5000   -19.7533   134.0336     7.4534     7.1130     6.9346    10.6991     0.0111     2.5416     0.0822    78.0757
 4690.0000   -19.7741   132.1184     7.6270     7.0779     6.8856    10.6935     0.0141     2.5441     0.0800    78.7513
 4690.5000   -19.9747   130.1333     7.7087     7.0429     6.8629    10.7155     0.0147     2.5453     0.0798    78.6887
 4691.0000   -20.2241   128.1372     7.4629     7.0269     6.8324    10.7380     0.0124     2.5422     0.0820    77.9098
 4691.5000   -20.4740   127.2673     7.2538     7.0262     6.8952    10.7140     0.0107     2.5394     0.0836    76.8404
 4692.0000   -21.1906   128.3678     7.1581     7.0261     7.0865    10.6255     0.0107     2.5418     0.0828    75.7710
 4692.5000   -22.2494   129.7670     7.7069     7.1545     7.2833    10.5523     0.0150     2.5498     0.0783    75.1752
 4693.0000   -23.3501   129.8461     8.0434     7.2930     7.4847    10.4864     0.0259     2.5576     0.0735    74.5412
 4693.5000   -24.9160   128.0517     8.1796     7.5717     7.7067    10.4179     0.0358     2.5657     0.0688    73.4287
 4694.0000   -27.5065   124.7717     8.3008     7.9909     8.3618    10.3980     0.0419     2.5689     0.0667    72.1293
 4694.5000   -31.4016   110.8527     9.5561     8.5415     9.1324    10.3127     0.0476     2.5684     0.0680    70.5678
 4695.0000   -35.4762    95.2068    11.2664    10.0047    10.5533    10.2123     0.0509     2.5582     0.0739    70.0125
 4695.5000   -39.5607    74.1411    15.7526    11.7185    12.4652    10.0953     0.0474     2.5378     0.0834    69.6401
