~VERSION INFORMATION
 VERS.                2.0:   CWLS LOG ASCII STANDARD - VERSION 2.0
 WRAP.                 NO:   ONE LINE PER DEPTH STEP
~WELL INFORMATION
#MNEM.UNIT      DATA TYPE    INFORMATION
#----------   ------------   ------------------------------
 STRT.F          542.0000:   START DEPTH
 STOP.F         5696.0000:   STOP DEPTH
 STEP.F            0.5000:   STEP LENGTH
 NULL.          -999.2500:   NO VALUE
 COMP.       DAVIS OIL CO:   COMPANY
 WELL. WEST TEAPOT DOME STATE #1-16:   WELL
 FLD .             TEAPOT:   FIELD
 LOC .      S16 T38N R78W:   LOCATION
 CNTY.            NATRONA:   COUNTY
 STAT.            WYOMING:   STATE
 CTRY. UNITED STATES OF AMERICA:   COUNTRY
 SRVC.       Schlumberger:   SERVICE COMPANY
 DATE.        24-MAR-1981:   LOGDATE
 API .       490252131000:   API NUMBER
~CURVE INFORMATION
#MNEM.UNIT       API CODE    CURVE DESCRIPTION
#----------   ------------   ------------------------------
 DEPT.F                  :   
 SPR .MV     07 010 01 00:   SPONTANEOUS POTENTIAL
 GRR .GAPI   07 310 01 00:   GAMMA RAY FROM RES. LOG.
 SFL .OHMM   07 220 01 00:   SHALLOW FOCUSED LOG RESISTIVITY
 ILD .OHMM   07 120 46 00:   INDUCTION LOG DEEP
 ILM .OHMM   07 120 44 00:   INDUCTION LOG MEDIUM
 CALD.IN     45 280 60 00:   CALIPER
 CORR.G/C3   45 356 01 00:   DENSITY CORRECTION
 RHOB.G/C3   45 350 01 00:   BULK DENSITY
 DPHI.DEC    45 890 12 00:   DENSITY POROSITY SANDSTONE
 DT  .US/F   60 520 00 00:   INTERVAL TRANSIT TIME
~PARAMETER INFORMATION
#MNEM.UNIT          VALUE    DESCRIPTION
#----------   ------------   ------------------------------
 PD  .                 GL:   PERMANENT DATUM
 EPD .F              5359:   ELEVATION PERMANENT DATUM
 LMF .                 KB:   LOG MEASURED FROM
 DAPD.F                10:   FEET ABOVE PERMANENT DATUM
 DMF .                 KB:   DRILLING MEASURED FROM
 EKB .F              5369:   KELLING BUSHING
 EGL .F              5359:   GROUND LEVEL
 DATE.            3-24-81:   RUN DATE
 RUN .                  1:   RUN NUMBER
 DD  .F              5700:   DEPTH DRILLER
 DL  .F              5700:   DEPTH LOGGER
 BLI .F              5694:   BOTTOM LOG INTERVAL
 TLI .F               559:   TOP LOG INTERVAL
 CS  .IN            9.625:   CASING SIZE
 CBD .F               554:   CASING BOTTOM DRILLER
 CBL .F               559:   CASING BOTTOM LOGGER
 BS  .IN             8.25:   BIT SIZE
 BSD .F              5700:   BIT SIZE AT DEPTH
 DFT .          DISPERSED:   DRILLING FLUID TYPE
 DFD .                9.7:   DRILLING FLUID DENSITY
 DFV .                 50:   DRILLING FLUID VISCOSITY
 DFPH.                8.5:   DRILLING FLUID PH
 DFL .                 10:   DRILLING FLUID LOSS
 MSS .            MUDTANK:   MUD SAMPLE SOURCE
 RMS .OHMM           2.34:   RESISTIVITY MUD SAMPLE
 MST .F                58:   MUD SAMPLE TEMPERATURE
 RMF .OHMM           1.67:   RESISTIVITY MUD FILTRATE SAMPLE
 MFST.F                65:   MUD FILTRATE SAMPLE TEMPERATURE
 MFSS.               MEAS:   MUD FILTRATE SAMPLE SOURCE
 RMB .OHMM            .98:   RESISTIVITY MUD AT BHT
 BHT .F               147:   BOTTOM HOLE TEMPERATURE
 TCS .HRS            2030:   TIME CURCULATED STOPPED
 TLAB.HRS            0100:   TIME LOGGER AT BOTTOM
 MRT .F               147:   MAXIMUM RECORDED TEMPERATURE
 LUN .               8035:   LOGGING UNIT NUMBER
 LUL .               CSPR:   LOGGING UNIT LOCATION
 ENGI.            BEATTIE:   RECORDING ENGINEER
 WITN.            TAUCHER:   WITNESSED BY
 CLNT.            A2DTECH:   CLIENT CODE
 ORIG.           5" PRINT:   ORIGIN OF DATA
 UWI .       490252131000:   UNIQUE WELL ID
 DICO. A2D Technologies, Inc.:   DIGITIZING COMPANY
~OTHER INFORMATION
~A   DEPT      SPR         GRR       SFL        ILD        ILM       CALD       CORR       RHOB       DPHI         DT   
# ...
 2619.0000   -23.9569    88.8956     8.2459     9.1080     8.5900  -999.2500  -999.2500  -999.2500  -999.2500  -999.2500
 2619.5000   -24.0413    93.8695     8.1988     9.0661     8.5220  -999.2500  -999.2500  -999.2500  -999.2500  -999.2500
 2620.0000   -24.1951   100.2321     8.1514     9.0245     8.4546  -999.2500  -999.2500  -999.2500  -999.2500  -999.2500
 2620.5000   -24.3435   105.6733     8.1045     8.9831     8.3876  -999.2500  -999.2500  -999.2500  -999.2500  -999.2500
 2621.0000   -24.0670   101.2474     8.0117     8.9390     8.3212  -999.2500  -999.2500  -999.2500  -999.2500  -999.2500
 2621.5000   -23.7558    94.9931     7.8291     8.8948     8.2554  -999.2500  -999.2500  -999.2500  -999.2500  -999.2500
 2622.0000   -23.4374    92.3154     7.6373     8.8475     8.0735  -999.2500  -999.2500  -999.2500  -999.2500  -999.2500
 2622.5000   -23.3619    92.8747     7.6988     8.8005     8.1292  -999.2500  -999.2500  -999.2500  -999.2500  -999.2500
 2623.0000   -23.3602    94.9234     7.8180     8.7538     8.2369  -999.2500  -999.2500  -999.2500  -999.2500  -999.2500
 2623.5000   -23.3567    94.8497     7.9305     8.7074     8.3462  -999.2500  -999.2500  -999.2500  -999.2500  -999.2500
 2624.0000   -23.2444    94.6387     7.9764     8.6682     8.4559  -999.2500  -999.2500  -999.2500  -999.2500  -999.2500
 2624.5000   -22.8132    95.2369     8.0160     8.6319     8.3780  -999.2500  -999.2500  -999.2500  -999.2500  -999.2500
 2625.0000   -22.3972    95.3141     8.0494     8.5958     8.3527  -999.2500  -999.2500  -999.2500  -999.2500  -999.2500
 2625.5000   -21.9833    95.1217     8.0745     8.5599     8.2695  -999.2500  -999.2500  -999.2500  -999.2500  -999.2500
 2626.0000   -21.8068    95.2873     7.9617     8.5215     8.1870  -999.2500  -999.2500  -999.2500  -999.2500  -999.2500
 2626.5000   -21.9450    95.9106     7.8611     8.4762     8.1054  -999.2500  -999.2500  -999.2500  -999.2500  -999.2500
 2627.0000   -22.0789    98.1888     7.7618     8.4311     8.0246  -999.2500  -999.2500  -999.2500  -999.2500  -999.2500
 2627.5000   -22.2143   100.0264     7.6638     8.3864     7.8524  -999.2500  -999.2500  -999.2500  -999.2500  -999.2500
 2628.0000   -22.3468   100.7937     7.5676     8.3419     7.8897  -999.2500  -999.2500  -999.2500  -999.2500  -999.2500
 2628.5000   -22.4620   100.3125     7.4953     8.3008     7.9244  -999.2500  -999.2500  -999.2500  -999.2500  -999.2500
 2629.0000   -22.6032    99.4189     7.5655     8.3945     7.9593  -999.2500  -999.2500  -999.2500  -999.2500  -999.2500
 2629.5000   -22.7446    99.7791     7.7915     8.4298     8.0762  -999.2500  -999.2500  -999.2500  -999.2500  -999.2500
 2630.0000   -22.7335   100.2450     7.9732     8.4652     8.0757  -999.2500  -999.2500  -999.2500  -999.2500  -999.2500
 2630.5000   -22.6895    97.8157     8.0735     8.5007     8.0440  -999.2500  -999.2500  -999.2500  -999.2500  -999.2500
 2631.0000   -22.6452    94.3717     8.0268     8.5364     8.0148  -999.2500  -999.2500  -999.2500  -999.2500  -999.2500
 2631.5000   -22.5959    93.1076     8.0000     8.5723     7.9863  -999.2500  -999.2500  -999.2500  -999.2500  -999.2500
 2632.0000   -22.3974    92.5304     8.1489     8.6139     7.9581  -999.2500  -999.2500  -999.2500  -999.2500  -999.2500
 2632.5000   -21.6340    92.3215     8.0143     8.5864     7.9254  -999.2500  -999.2500  -999.2500  -999.2500  -999.2500
 2633.0000   -21.3167    92.5341     7.8098     8.5437     7.9473  -999.2500  -999.2500  -999.2500  -999.2500  -999.2500
 2633.5000   -21.2247    92.7413     7.4972     8.5013     7.9817  -999.2500  -999.2500  -999.2500  -999.2500  -999.2500
 2634.0000   -21.1311    92.9423     7.5826     8.4590     8.0162  -999.2500  -999.2500  -999.2500  -999.2500  -999.2500
 2634.5000   -21.0325    93.7736     7.7800     8.4169     8.0510  -999.2500  -999.2500  -999.2500  -999.2500  -999.2500
 2635.0000   -20.9576    95.4665     7.6701     8.3749     8.0861  -999.2500  -999.2500  -999.2500  -999.2500  -999.2500
 2635.5000   -20.8738    97.4461     7.5669     8.3334     8.1214  -999.2500  -999.2500  -999.2500  -999.2500  -999.2500
 2636.0000   -20.7907    97.5971     7.6120     8.3008     8.1493  -999.2500  -999.2500  -999.2500  -999.2500  -999.2500
 2636.5000   -20.7082    94.6076     7.6676     8.3229     8.1052  -999.2500  -999.2500  -999.2500  -999.2500  -999.2500
 2637.0000   -20.6245    92.0780     7.7236     8.3412     8.0501  -999.2500  -999.2500  -999.2500  -999.2500  -999.2500
 2637.5000   -20.5872    92.0474     7.7800     8.3597     7.9209  -999.2500  -999.2500  -999.2500  -999.2500  -999.2500
 2638.0000   -20.9708    93.7112     7.6765     8.3779     7.9299  -999.2500  -999.2500  -999.2500  -999.2500  -999.2500
 2638.5000   -21.3708    97.2157     7.4972     8.3485     7.7854  -999.2500  -999.2500  -999.2500  -999.2500  -999.2500
 2639.0000   -21.7580   100.7230     7.5454     8.3113     7.7068  -999.2500  -999.2500  -999.2500  -999.2500  -999.2500
 2639.5000   -21.7723   104.2504     7.6707     8.2742     7.6279  -999.2500  -999.2500  -999.2500  -999.2500  -999.2500
 2640.0000   -21.7697   104.3514     7.7980     8.2374     7.5493  -999.2500  -999.2500  -999.2500  -999.2500  -999.2500
 2640.5000   -21.7631    98.6952     7.8524     8.2007     7.4713  -999.2500  -999.2500  -999.2500  -999.2500  -999.2500
 2641.0000   -21.9747    95.6401     7.7188     8.1642     7.3942  -999.2500  -999.2500  -999.2500  -999.2500  -999.2500
 2641.5000   -22.2377    95.7909     7.5499     8.1342     7.3180  -999.2500  -999.2500  -999.2500  -999.2500  -999.2500
 2642.0000   -22.5135    97.2626     7.3847     8.0955     7.2425  -999.2500  -999.2500  -999.2500  -999.2500  -999.2500
 2642.5000   -22.3288   100.7802     7.2231     8.0570     7.2247  -999.2500  -999.2500  -999.2500  -999.2500  -999.2500
 2643.0000   -22.0312   101.1698     7.0650     8.0187     7.2247  -999.2500  -999.2500  -999.2500  -999.2500  -999.2500
 2643.5000   -21.7572   100.3927     7.0268     7.9806     7.2247  -999.2500  -999.2500  -999.2500  -999.2500  -999.2500
 2644.0000   -21.5930    98.6139     7.0887     7.9428     7.2309  -999.2500  -999.2500  -999.2500  -999.2500  -999.2500
 2644.5000   -21.4078    98.4413     7.1544     7.9158     7.2727  -999.2500  -999.2500  -999.2500  -999.2500  -999.2500
 2645.0000   -21.2251    98.8032     7.2207     7.8867     7.3147  -999.2500  -999.2500  -999.2500  -999.2500  -999.2500
 2645.5000   -20.8668    98.4750     7.2919     7.8580     7.3597  -999.2500  -999.2500  -999.2500  -999.2500  -999.2500
 2646.0000   -20.4578    96.6442     7.2277     7.8295     7.3235  -999.2500  -999.2500  -999.2500  -999.2500  -999.2500
 2646.5000   -20.1736    95.8466     7.1413     7.8010     7.2563  -999.2500  -999.2500  -999.2500  -999.2500  -999.2500
 2647.0000   -20.1789    94.8797     7.0560     7.7727     7.1897  -999.2500  -999.2500  -999.2500  -999.2500  -999.2500
 2647.5000   -20.1776    93.5968     6.9716     7.7444     7.1238  -999.2500  -999.2500  -999.2500  -999.2500  -999.2500
 2648.0000   -20.1820    92.3249     6.9059     7.7163     7.0922  -999.2500  -999.2500  -999.2500  -999.2500  -999.2500
 2648.5000   -20.4644    91.6049     6.9744     7.6852     7.1091  -999.2500  -999.2500  -999.2500  -999.2500  -999.2500
 2649.0000   -20.7779    92.3135     7.0439     7.6532     7.1243  -999.2500  -999.2500  -999.2500  -999.2500  -999.2500
 2649.5000   -21.0911    94.0313     7.0921     7.6212     7.1396  -999.2500  -999.2500  -999.2500  -999.2500  -999.2500
 2650.0000   -21.3696    96.7763     7.0565     7.5894     7.1548  -999.2500  -999.2500  -999.2500  -999.2500  -999.2500
 2650.5000   -21.3731    99.4806     7.0241     7.5669     7.1701  -999.2500  -999.2500  -999.2500  -999.2500  -999.2500
 2651.0000   -21.3719   100.0367     6.9918     7.6097     7.1855  -999.2500  -999.2500  -999.2500  -999.2500  -999.2500
 2651.5000   -21.3718    98.5491     6.9621     7.6430     7.2009  -999.2500  -999.2500  -999.2500  -999.2500  -999.2500
 2652.0000   -21.3721    95.1547     6.9906     7.6764     7.2163  -999.2500  -999.2500  -999.2500  -999.2500  -999.2500
