~VERSION INFORMATION
 VERS.                2.0:   CWLS LOG ASCII STANDARD - VERSION 2.0
 WRAP.                 NO:   ONE LINE PER DEPTH STEP
~WELL INFORMATION
#MNEM.UNIT      DATA TYPE    INFORMATION
#----------   ------------   ------------------------------
 STRT.F          542.0000:   START DEPTH
 STOP.F         5696.0000:   STOP DEPTH
 STEP.F            0.5000:   STEP LENGTH
 NULL.          -999.2500:   NO VALUE
 COMP.       DAVIS OIL CO:   COMPANY
 WELL. WEST TEAPOT DOME STATE #1-16:   WELL
 FLD .             TEAPOT:   FIELD
 LOC .      S16 T38N R78W:   LOCATION
 CNTY.            NATRONA:   COUNTY
 STAT.            WYOMING:   STATE
 CTRY. UNITED STATES OF AMERICA:   COUNTRY
 SRVC.       Schlumberger:   SERVICE COMPANY
 DATE.        24-MAR-1981:   LOGDATE
 API .       490252131000:   API NUMBER
~CURVE INFORMATION
#MNEM.UNIT       API CODE    CURVE DESCRIPTION
#----------   ------------   ------------------------------
 DEPT.F                  :   
 SPR .MV     07 010 01 00:   SPONTANEOUS POTENTIAL
 GRR .GAPI   07 310 01 00:   GAMMA RAY FROM RES. LOG.
 SFL .OHMM   07 220 01 00:   SHALLOW FOCUSED LOG RESISTIVITY
 ILD .OHMM   07 120 46 00:   INDUCTION LOG DEEP
 ILM .OHMM   07 120 44 00:   INDUCTION LOG MEDIUM
 CALD.IN     45 280 60 00:   CALIPER
 CORR.G/C3   45 356 01 00:   DENSITY CORRECTION
 RHOB.G/C3   45 350 01 00:   BULK DENSITY
 DPHI.DEC    45 890 12 00:   DENSITY POROSITY SANDSTONE
 DT  .US/F   60 520 00 00:   INTERVAL TRANSIT TIME
~PARAMETER INFORMATION
#MNEM.UNIT          VALUE    DESCRIPTION
#----------   ------------   ------------------------------
 PD  .                 GL:   PERMANENT DATUM
 EPD .F              5359:   ELEVATION PERMANENT DATUM
 LMF .                 KB:   LOG MEASURED FROM
 DAPD.F                10:   FEET ABOVE PERMANENT DATUM
 DMF .                 KB:   DRILLING MEASURED FROM
 EKB .F              5369:   KELLING BUSHING
 EGL .F              5359:   GROUND LEVEL
 DATE.            3-24-81:   RUN DATE
 RUN .                  1:   RUN NUMBER
 DD  .F              5700:   DEPTH DRILLER
 DL  .F              5700:   DEPTH LOGGER
 BLI .F              5694:   BOTTOM LOG INTERVAL
 TLI .F               559:   TOP LOG INTERVAL
 CS  .IN            9.625:   CASING SIZE
 CBD .F               554:   CASING BOTTOM DRILLER
 CBL .F               559:   CASING BOTTOM LOGGER
 BS  .IN             8.25:   BIT SIZE
 BSD .F              5700:   BIT SIZE AT DEPTH
 DFT .          DISPERSED:   DRILLING FLUID TYPE
 DFD .                9.7:   DRILLING FLUID DENSITY
 DFV .                 50:   DRILLING FLUID VISCOSITY
 DFPH.                8.5:   DRILLING FLUID PH
 DFL .                 10:   DRILLING FLUID LOSS
 MSS .            MUDTANK:   MUD SAMPLE SOURCE
 RMS .OHMM           2.34:   RESISTIVITY MUD SAMPLE
 MST .F                58:   MUD SAMPLE TEMPERATURE
 RMF .OHMM           1.67:   RESISTIVITY MUD FILTRATE SAMPLE
 MFST.F                65:   MUD FILTRATE SAMPLE TEMPERATURE
 MFSS.               MEAS:   MUD FILTRATE SAMPLE SOURCE
 RMB .OHMM            .98:   RESISTIVITY MUD AT BHT
 BHT .F               147:   BOTTOM HOLE TEMPERATURE
 TCS .HRS            2030:   TIME CURCULATED STOPPED
 TLAB.HRS            0100:   TIME LOGGER AT BOTTOM
 MRT .F               147:   MAXIMUM RECORDED TEMPERATURE
 LUN .               8035:   LOGGING UNIT NUMBER
 LUL .               CSPR:   LOGGING UNIT LOCATION
 ENGI.            BEATTIE:   RECORDING ENGINEER
 WITN.            TAUCHER:   WITNESSED BY
 CLNT.            A2DTECH:   CLIENT CODE
 ORIG.           5" PRINT:   ORIGIN OF DATA
 UWI .       490252131000:   UNIQUE WELL ID
 DICO. A2D Technologies, Inc.:   DIGITIZING COMPANY
~OTHER INFORMATION
~A   DEPT      SPR         GRR       SFL        ILD        ILM       CALD       CORR       RHOB       DPHI         DT   
# ...
 1245.5000   -19.6651    76.9408     5.8629     5.2822     5.0354  -999.2500  -999.2500  -999.2500  -999.2500  -999.2500
 1246.0000   -19.5413    81.8000     6.1158     5.3230     4.8873  -999.2500  -999.2500  -999.2500  -999.2500  -999.2500
 1246.5000   -19.4143    90.3753     5.6578     5.1950     4.8106  -999.2500  -999.2500  -999.2500  -999.2500  -999.2500
 1247.0000   -19.3844    95.3356     5.4643     5.0249     4.7352  -999.2500  -999.2500  -999.2500  -999.2500  -999.2500
 1247.5000   -19.3834    92.9831     5.3735     4.8604     4.6609  -999.2500  -999.2500  -999.2500  -999.2500  -999.2500
 1248.0000   -19.3806    88.9880     5.2287     4.7189     4.5879  -999.2500  -999.2500  -999.2500  -999.2500  -999.2500
 1248.5000   -19.5022    86.0339     5.0767     4.7194     4.5159  -999.2500  -999.2500  -999.2500  -999.2500  -999.2500
 1249.0000   -19.6660    85.4975     4.9291     4.8027     4.4451  -999.2500  -999.2500  -999.2500  -999.2500  -999.2500
 1249.5000   -19.8310    84.8217     4.7859     4.8957     4.3668  -999.2500  -999.2500  -999.2500  -999.2500  -999.2500
 1250.0000   -19.9965    83.9131     4.6329     4.9440     4.2187  -999.2500  -999.2500  -999.2500  -999.2500  -999.2500
 1250.5000   -20.1598    84.8960     4.5891     4.7926     4.1341  -999.2500  -999.2500  -999.2500  -999.2500  -999.2500
 1251.0000   -20.1792    86.9795     4.5408     4.6307     4.1105  -999.2500  -999.2500  -999.2500  -999.2500  -999.2500
 1251.5000   -20.1793    89.0655     4.4501     4.4743     3.9356  -999.2500  -999.2500  -999.2500  -999.2500  -999.2500
 1252.0000   -20.1791    91.1401     4.2298     4.3232     3.7486  -999.2500  -999.2500  -999.2500  -999.2500  -999.2500
 1252.5000   -20.1788    90.7362     3.9648     4.1844     3.5705  -999.2500  -999.2500  -999.2500  -999.2500  -999.2500
 1253.0000   -20.1782    89.9193     3.7164     4.1178     3.5096  -999.2500  -999.2500  -999.2500  -999.2500  -999.2500
 1253.5000   -20.1109    89.3641     3.4836     4.1018     3.5278  -999.2500  -999.2500  -999.2500  -999.2500  -999.2500
 1254.0000   -19.9528    91.6560     3.4134     4.0768     3.5422  -999.2500  -999.2500  -999.2500  -999.2500  -999.2500
 1254.5000   -19.7956    92.6831     3.5960     4.0520     3.5898  -999.2500  -999.2500  -999.2500  -999.2500  -999.2500
 1255.0000   -19.6382    90.2968     3.7893     4.0323     3.6371  -999.2500  -999.2500  -999.2500  -999.2500  -999.2500
 1255.5000   -19.4814    87.4595     3.9930     4.0676     3.6850  -999.2500  -999.2500  -999.2500  -999.2500  -999.2500
 1256.0000   -19.3825    86.8037     4.2077     4.1033     3.7338  -999.2500  -999.2500  -999.2500  -999.2500  -999.2500
 1256.5000   -19.3838    89.4714     4.3022     4.1395     3.7514  -999.2500  -999.2500  -999.2500  -999.2500  -999.2500
 1257.0000   -19.3837    89.0226     4.2421     4.1761     3.7695  -999.2500  -999.2500  -999.2500  -999.2500  -999.2500
 1257.5000   -19.3836    88.6292     4.1651     4.2244     3.7876  -999.2500  -999.2500  -999.2500  -999.2500  -999.2500
 1258.0000   -19.3837    89.5788     4.0894     4.2957     3.8059  -999.2500  -999.2500  -999.2500  -999.2500  -999.2500
 1258.5000   -19.3837    90.8228     4.0152     4.3689     3.8243  -999.2500  -999.2500  -999.2500  -999.2500  -999.2500
 1259.0000   -19.3835    90.3054     3.9583     4.4432     3.8428  -999.2500  -999.2500  -999.2500  -999.2500  -999.2500
 1259.5000   -19.3831    88.2064     4.0368     4.4657     3.8614  -999.2500  -999.2500  -999.2500  -999.2500  -999.2500
 1260.0000   -19.3850    86.0284     4.0957     4.4696     3.8800  -999.2500  -999.2500  -999.2500  -999.2500  -999.2500
 1260.5000   -19.4413    85.7332     4.1554     4.4732     3.8915  -999.2500  -999.2500  -999.2500  -999.2500  -999.2500
 1261.0000   -19.6666    87.2110     4.2159     4.4769     3.9114  -999.2500  -999.2500  -999.2500  -999.2500  -999.2500
 1261.5000   -19.8854    89.1823     4.2626     4.4806     3.9313  -999.2500  -999.2500  -999.2500  -999.2500  -999.2500
 1262.0000   -20.1038    91.1597     4.1976     4.4843     3.9583  -999.2500  -999.2500  -999.2500  -999.2500  -999.2500
 1262.5000   -20.3231    93.0057     4.1593     4.4880     3.9517  -999.2500  -999.2500  -999.2500  -999.2500  -999.2500
 1263.0000   -20.5421    92.4528     4.1076     4.4918     3.9417  -999.2500  -999.2500  -999.2500  -999.2500  -999.2500
 1263.5000   -20.5766    90.5673     4.1366     4.4955     3.9317  -999.2500  -999.2500  -999.2500  -999.2500  -999.2500
 1264.0000   -20.5800    88.6022     4.2040     4.4993     3.9219  -999.2500  -999.2500  -999.2500  -999.2500  -999.2500
 1264.5000   -20.4887    87.7144     4.2726     4.5030     4.0146  -999.2500  -999.2500  -999.2500  -999.2500  -999.2500
 1265.0000   -20.3825    86.8500     4.3422     4.5252     4.1076  -999.2500  -999.2500  -999.2500  -999.2500  -999.2500
 1265.5000   -20.2752    85.9930     4.2998     4.6212     4.0889  -999.2500  -999.2500  -999.2500  -999.2500  -999.2500
 1266.0000   -20.1681    85.3997     4.2578     4.7193     4.0701  -999.2500  -999.2500  -999.2500  -999.2500  -999.2500
 1266.5000   -20.0611    87.3754     4.2233     4.8195     4.1729  -999.2500  -999.2500  -999.2500  -999.2500  -999.2500
 1267.0000   -19.9541    89.6311     4.4311     4.9217     4.2803  -999.2500  -999.2500  -999.2500  -999.2500  -999.2500
 1267.5000   -19.8472    90.3083     4.6166     4.9993     4.3907  -999.2500  -999.2500  -999.2500  -999.2500  -999.2500
 1268.0000   -19.7404    91.8815     4.8098     5.0286     4.4676  -999.2500  -999.2500  -999.2500  -999.2500  -999.2500
 1268.5000   -19.6334    94.2928     4.9430     5.0580     4.4892  -999.2500  -999.2500  -999.2500  -999.2500  -999.2500
 1269.0000   -19.5827    97.7793     4.9430     5.0876     4.5109  -999.2500  -999.2500  -999.2500  -999.2500  -999.2500
 1269.5000   -19.5833   100.6060     4.8625     5.1173     4.5327  -999.2500  -999.2500  -999.2500  -999.2500  -999.2500
 1270.0000   -19.5838   101.8635     4.7107     5.1472     4.5479  -999.2500  -999.2500  -999.2500  -999.2500  -999.2500
 1270.5000   -19.7361   103.1340     4.5475     5.1773     4.5286  -999.2500  -999.2500  -999.2500  -999.2500  -999.2500
 1271.0000   -20.0434   104.0994     4.5839     5.2076     4.5060  -999.2500  -999.2500  -999.2500  -999.2500  -999.2500
 1271.5000   -20.3486   103.0561     4.6367     5.2381     4.5553  -999.2500  -999.2500  -999.2500  -999.2500  -999.2500
 1272.0000   -20.6000   101.6597     4.6760     5.2687     4.6609  -999.2500  -999.2500  -999.2500  -999.2500  -999.2500
 1272.5000   -20.6687    97.4374     5.0368     5.2995     4.7689  -999.2500  -999.2500  -999.2500  -999.2500  -999.2500
 1273.0000   -20.7414    93.2852     5.4024     5.3230     4.8975  -999.2500  -999.2500  -999.2500  -999.2500  -999.2500
 1273.5000   -20.8143    92.9324     5.7946     5.2848     4.8269  -999.2500  -999.2500  -999.2500  -999.2500  -999.2500
 1274.0000   -20.8875    94.3470     6.0037     5.2396     4.6682  -999.2500  -999.2500  -999.2500  -999.2500  -999.2500
 1274.5000   -20.9630    95.7570     5.1892     5.1948     4.5391  -999.2500  -999.2500  -999.2500  -999.2500  -999.2500
 1275.0000   -20.9125    96.9828     4.3367     5.1503     4.5017  -999.2500  -999.2500  -999.2500  -999.2500  -999.2500
 1275.5000   -20.8377    98.9759     4.3459     5.1063     4.4645  -999.2500  -999.2500  -999.2500  -999.2500  -999.2500
 1276.0000   -20.7617   100.9485     4.3130     5.0626     4.4501  -999.2500  -999.2500  -999.2500  -999.2500  -999.2500
 1276.5000   -20.6857   102.2051     4.3020     5.0354     4.4355  -999.2500  -999.2500  -999.2500  -999.2500  -999.2500
 1277.0000   -20.6096   102.1903     4.4024     5.0938     4.4234  -999.2500  -999.2500  -999.2500  -999.2500  -999.2500
 1277.5000   -20.5193   102.4594     4.6652     5.1986     4.6003  -999.2500  -999.2500  -999.2500  -999.2500  -999.2500
 1278.0000   -20.4180   104.2657     5.0047     5.3411     4.7583  -999.2500  -999.2500  -999.2500  -999.2500  -999.2500
 1278.5000   -20.3164   106.1231     5.3690     5.5001     4.9217  -999.2500  -999.2500  -999.2500  -999.2500  -999.2500
