~VERSION INFORMATION
 VERS.                2.0:   CWLS LOG ASCII STANDARD - VERSION 2.0
 WRAP.                 NO:   ONE LINE PER DEPTH STEP
~WELL INFORMATION
#MNEM.UNIT      DATA TYPE    INFORMATION
#----------   ------------   ------------------------------
 STRT.F          542.0000:   START DEPTH
 STOP.F         5696.0000:   STOP DEPTH
 STEP.F            0.5000:   STEP LENGTH
 NULL.          -999.2500:   NO VALUE
 COMP.       DAVIS OIL CO:   COMPANY
 WELL. WEST TEAPOT DOME STATE #1-16:   WELL
 FLD .             TEAPOT:   FIELD
 LOC .      S16 T38N R78W:   LOCATION
 CNTY.            NATRONA:   COUNTY
 STAT.            WYOMING:   STATE
 CTRY. UNITED STATES OF AMERICA:   COUNTRY
 SRVC.       Schlumberger:   SERVICE COMPANY
 DATE.        24-MAR-1981:   LOGDATE
 API .       490252131000:   API NUMBER
~CURVE INFORMATION
#MNEM.UNIT       API CODE    CURVE DESCRIPTION
#----------   ------------   ------------------------------
 DEPT.F                  :   
 SPR .MV     07 010 01 00:   SPONTANEOUS POTENTIAL
 GRR .GAPI   07 310 01 00:   GAMMA RAY FROM RES. LOG.
 SFL .OHMM   07 220 01 00:   SHALLOW FOCUSED LOG RESISTIVITY
 ILD .OHMM   07 120 46 00:   INDUCTION LOG DEEP
 ILM .OHMM   07 120 44 00:   INDUCTION LOG MEDIUM
 CALD.IN     45 280 60 00:   CALIPER
 CORR.G/C3   45 356 01 00:   DENSITY CORRECTION
 RHOB.G/C3   45 350 01 00:   BULK DENSITY
 DPHI.DEC    45 890 12 00:   DENSITY POROSITY SANDSTONE
 DT  .US/F   60 520 00 00:   INTERVAL TRANSIT TIME
~PARAMETER INFORMATION
#MNEM.UNIT          VALUE    DESCRIPTION
#----------   ------------   ------------------------------
 PD  .                 GL:   PERMANENT DATUM
 EPD .F              5359:   ELEVATION PERMANENT DATUM
 LMF .                 KB:   LOG MEASURED FROM
 DAPD.F                10:   FEET ABOVE PERMANENT DATUM
 DMF .                 KB:   DRILLING MEASURED FROM
 EKB .F              5369:   KELLING BUSHING
 EGL .F              5359:   GROUND LEVEL
 DATE.            3-24-81:   RUN DATE
 RUN .                  1:   RUN NUMBER
 DD  .F              5700:   DEPTH DRILLER
 DL  .F              5700:   DEPTH LOGGER
 BLI .F              5694:   BOTTOM LOG INTERVAL
 TLI .F               559:   TOP LOG INTERVAL
 CS  .IN            9.625:   CASING SIZE
 CBD .F               554:   CASING BOTTOM DRILLER
 CBL .F               559:   CASING BOTTOM LOGGER
 BS  .IN             8.25:   BIT SIZE
 BSD .F              5700:   BIT SIZE AT DEPTH
 DFT .          DISPERSED:   DRILLING FLUID TYPE
 DFD .                9.7:   DRILLING FLUID DENSITY
 DFV .                 50:   DRILLING FLUID VISCOSITY
 DFPH.                8.5:   DRILLING FLUID PH
 DFL .                 10:   DRILLING FLUID LOSS
 MSS .            MUDTANK:   MUD SAMPLE SOURCE
 RMS .OHMM           2.34:   RESISTIVITY MUD SAMPLE
 MST .F                58:   MUD SAMPLE TEMPERATURE
 RMF .OHMM           1.67:   RESISTIVITY MUD FILTRATE SAMPLE
 MFST.F                65:   MUD FILTRATE SAMPLE TEMPERATURE
 MFSS.               MEAS:   MUD FILTRATE SAMPLE SOURCE
 RMB .OHMM            .98:   RESISTIVITY MUD AT BHT
 BHT .F               147:   BOTTOM HOLE TEMPERATURE
 TCS .HRS            2030:   TIME CURCULATED STOPPED
 TLAB.HRS            0100:   TIME LOGGER AT BOTTOM
 MRT .F               147:   MAXIMUM RECORDED TEMPERATURE
 LUN .               8035:   LOGGING UNIT NUMBER
 LUL .               CSPR:   LOGGING UNIT LOCATION
 ENGI.            BEATTIE:   RECORDING ENGINEER
 WITN.            TAUCHER:   WITNESSED BY
 CLNT.            A2DTECH:   CLIENT CODE
 ORIG.           5" PRINT:   ORIGIN OF DATA
 UWI .       490252131000:   UNIQUE WELL ID
 DICO. A2D Technologies, Inc.:   DIGITIZING COMPANY
~OTHER INFORMATION
~A   DEPT      SPR         GRR       SFL        ILD        ILM       CALD       CORR       RHOB       DPHI         DT   
# ...
 4997.5000   -22.6737   115.5735    11.9920     7.8583     7.5502     9.5447     0.1318     2.6373     0.0289    75.8859
 4998.0000   -22.8446   117.3482    13.1864     7.3234     6.9704     9.5778     0.1142     2.6100     0.0406    77.9694
 4998.5000   -22.9647   126.7131    12.1036     6.8249     6.4352     9.6154     0.0631     2.5515     0.0742    81.8547
 4999.0000   -22.9622   136.5278     9.5687     6.3602     5.9411     9.6531     0.0427     2.5203     0.0943    84.2190
 4999.5000   -22.9622   141.4289     7.2125     5.9503     5.4848     9.6907     0.0264     2.5140     0.0992    84.3664
 5000.0000   -22.9622   138.7753     5.1648     5.5758     5.0637     9.7283     0.0244     2.5205     0.0938    83.6791
 5000.5000   -22.9626   133.0778     5.3134     5.2248     4.9014     9.7539     0.0242     2.5275     0.0872    82.8929
 5001.0000   -22.9640   130.9459     5.5828     4.9361     4.8425     9.7674     0.0252     2.5310     0.0864    82.4925
 5001.5000   -22.9532   132.2246     5.8713     4.7577     4.7842     9.7809     0.0232     2.5260     0.0935    82.6402
 5002.0000   -22.7347   133.5032     6.1747     4.6211     4.7266     9.7942     0.0183     2.5116     0.1010    82.7759
 5002.5000   -22.5225   133.9182     6.4651     4.5902     4.7870     9.8065     0.0093     2.4989     0.1085    83.4718
 5003.0000   -22.3614   134.5738     6.2111     4.6920     4.8654     9.8131     0.0049     2.4933     0.1112    83.3954
 5003.5000   -22.3652   135.6389     5.9314     4.7737     4.9450     9.8193     0.0174     2.5110     0.1000    82.5345
 5004.0000   -22.3130   136.3507     5.5731     4.8524     5.0732     9.8254     0.0270     2.5371     0.0872    81.0871
 5004.5000   -22.1960   135.8387     5.5721     5.2033     5.2634     9.8315     0.0358     2.5608     0.0718    79.0971
 5005.0000   -22.0803   133.5502     6.2129     5.5603     5.4990     9.8376     0.0389     2.5610     0.0724    77.3925
 5005.5000   -21.9723   129.3478     6.8904     5.9417     5.7953     9.8452     0.0421     2.5590     0.0731    76.4202
 5006.0000   -22.1468   125.4978     7.6419     6.3494     6.1085     9.8292     0.0501     2.5578     0.0729    75.8975
 5006.5000   -22.5683   123.7068     8.4753     6.7850     6.4720     9.8464     0.0792     2.5703     0.0660    74.8067
 5007.0000   -22.9869   125.3941     9.1905     7.2505     6.8784     9.8617     0.1291     2.5632     0.0705    73.2553
 5007.5000   -23.4062   125.0351     9.2597     7.7479     7.3102     9.8774     0.1747     2.5340     0.0875    71.5140
 5008.0000   -23.8251   121.0206     9.2760     8.2794     7.7692     9.8958     0.1467     2.4526     0.1268    70.8809
 5008.5000   -24.2453   116.2495    10.4416     8.8474     8.2570     9.8613     0.0673     2.3778     0.1907    71.6301
 5009.0000   -24.6729   113.0363    11.7542     9.4544     8.7754     9.8063     0.0413     2.3597     0.1851    72.0805
 5009.5000   -24.6457   114.8846    13.5677     9.8528     9.3263     9.7897     0.0298     2.4195     0.1414    71.5866
 5010.0000   -24.5169   121.0875    13.4257    10.1079     9.7526     9.7746     0.0331     2.4979     0.1056    70.5538
 5010.5000   -24.3863   127.0877    12.6674    10.3658    10.1532     9.7682     0.0298     2.5244     0.0898    69.5203
 5011.0000   -24.2129   126.7643    11.8001    10.4443    10.5702     9.7705     0.0267     2.5385     0.0857    69.1800
 5011.5000   -24.0315   122.8359    11.9812    10.5595    10.8568     9.7728     0.0262     2.5465     0.0826    69.9878
 5012.0000   -23.8493   118.5798    12.4929    10.1768    10.6313     9.7752     0.0358     2.5548     0.0792    71.8783
 5012.5000   -23.6672   114.8014    13.0649     9.8884    10.1839     9.7775     0.0967     2.5761     0.0687    73.6551
 5013.0000   -23.4851   115.6617    12.7044     9.6081     9.7065     9.7799     0.1656     2.5939     0.0552    74.7922
 5013.5000   -23.3030   120.6361    12.0714     9.0609     9.2516     9.7822     0.2046     2.5993     0.0488    76.0947
 5014.0000   -23.1220   127.9324    10.9632     8.4567     8.8179     9.7845     0.1910     2.5681     0.0744    77.4545
 5014.5000   -22.9596   137.1777     9.7984     7.8928     8.3676     9.7866     0.1440     2.5163     0.0932    78.8143
 5015.0000   -22.7507   146.4113     8.7549     7.3665     7.7026     9.7867     0.0947     2.4968     0.1083    79.6096
 5015.5000   -22.5242   153.6027     7.8228     6.8022     7.0905     9.7866     0.0525     2.4917     0.1120    79.9070
 5016.0000   -22.3804   155.9797     6.9900     6.2548     6.5269     9.7866     0.0271     2.5101     0.1015    79.9402
 5016.5000   -22.5405   158.1829     6.4201     5.7515     6.0082     9.7866     0.0234     2.5319     0.0910    79.9734
 5017.0000   -22.6992   161.4368     6.2908     5.3262     5.5307     9.7867     0.0314     2.5412     0.0834    80.0580
 5017.5000   -22.8573   165.9679     6.1804     5.0152     5.1295     9.7867     0.0330     2.5315     0.0892    80.5771
 5018.0000   -23.0152   169.2910     6.0720     4.7224     4.5302     9.8009     0.0378     2.5207     0.0958    83.2449
 5018.5000   -23.1625   173.7168     5.7421     4.2722     4.0425     9.8289     0.0891     2.4867     0.1118    91.1964
 5019.0000   -23.2428   189.0945     5.1319     3.7934     3.6072     9.8556     0.1162     2.4515     0.1401    92.7027
 5019.5000   -23.3184   200.0801     4.1963     3.4772     3.2188     9.9797     0.0903     2.3359     0.1935    89.7998
 5020.0000   -23.3596   199.9611     3.4313     3.5628     3.1698    10.0152     0.0477     2.2917     0.2335    84.1231
 5020.5000   -23.3596   196.5079     2.8365     3.7445     3.4917     9.8050     0.0179     2.3552     0.2029    79.0891
 5021.0000   -23.3594   175.3442     3.5877     3.8037     3.7700     9.7485     0.0382     2.4251     0.1520    78.5627
 5021.5000   -23.3633   156.9650     5.3555     3.8744     4.0704     9.7685     0.0584     2.4636     0.1284    80.7908
 5022.0000   -23.4835   154.6610     7.9022     4.1319     4.3826     9.7885     0.0556     2.4432     0.1412    80.0391
 5022.5000   -23.4188   155.1471     7.5125     4.5481     4.6851     9.8083     0.0257     2.4615     0.1304    78.3255
 5023.0000   -23.1046   151.9093     6.6768     5.0065     4.9968     9.8277     0.0717     2.4951     0.1112    77.7658
 5023.5000   -22.7617   145.0363     6.2296     5.5106     5.3292     9.8472     0.1614     2.5765     0.0760    78.6578
 5024.0000   -22.6473   139.6554     6.6912     6.0587     5.6837     9.8859     0.1572     2.5319     0.0999    79.4895
 5024.5000   -22.5241   139.5410     7.3127     6.2711     6.0595     9.9077     0.0794     2.4241     0.1523    79.1518
 5025.0000   -22.4049   140.6095     7.7242     6.4886     6.3110     9.9137     0.0301     2.4096     0.1607    77.4474
 5025.5000   -22.2848   139.9922     7.8036     6.7132     6.5714     9.9207     0.0011     2.4446     0.1328    75.8176
 5026.0000   -22.1755   134.3752     8.0425     6.9453     6.8425     9.9456     0.0062     2.5133     0.1000    75.2853
 5026.5000   -22.3771   127.0081     9.1272     7.1437     7.1248    10.0385     0.0246     2.5583     0.0726    76.2500
 5027.0000   -22.5937   120.1343    10.3581     7.2794     7.4188    10.0500     0.0255     2.5602     0.0724    76.6971
 5027.5000   -22.8089   118.5436    10.6577     7.4177     7.7249    10.0562     0.0210     2.5429     0.0806    76.7868
 5028.0000   -23.0227   122.5124    10.2416     7.5586     7.9700    10.0631     0.0096     2.5231     0.0869    76.5448
 5028.5000   -23.1632   126.6467     9.8992     7.7083     8.0000    10.0701     0.0136     2.5187     0.0898    76.1692
 5029.0000   -23.1607   128.9124     9.5683     7.7800     7.9998    10.0772     0.0216     2.5367     0.0819    76.0626
 5029.5000   -23.1600   129.1565     9.2484     7.7800     7.9992    10.0841     0.0303     2.5537     0.0733    75.9560
 5030.0000   -23.1649   128.9388     9.1059     7.7805     7.9988    10.0912     0.0351     2.5714     0.0654    75.9993
 5030.5000   -23.3678   129.5022     9.3721     7.7579     7.9991    10.0982     0.0326     2.5760     0.0628    76.4249
