~VERSION INFORMATION
 VERS.                2.0:   CWLS LOG ASCII STANDARD - VERSION 2.0
 WRAP.                 NO:   ONE LINE PER DEPTH STEP
~WELL INFORMATION
#MNEM.UNIT      DATA TYPE    INFORMATION
#----------   ------------   ------------------------------
 STRT.F          542.0000:   START DEPTH
 STOP.F         5696.0000:   STOP DEPTH
 STEP.F            0.5000:   STEP LENGTH
 NULL.          -999.2500:   NO VALUE
 COMP.       DAVIS OIL CO:   COMPANY
 WELL. WEST TEAPOT DOME STATE #1-16:   WELL
 FLD .             TEAPOT:   FIELD
 LOC .      S16 T38N R78W:   LOCATION
 CNTY.            NATRONA:   COUNTY
 STAT.            WYOMING:   STATE
 CTRY. UNITED STATES OF AMERICA:   COUNTRY
 SRVC.       Schlumberger:   SERVICE COMPANY
 DATE.        24-MAR-1981:   LOGDATE
 API .       490252131000:   API NUMBER
~CURVE INFORMATION
#MNEM.UNIT       API CODE    CURVE DESCRIPTION
#----------   ------------   ------------------------------
 DEPT.F                  :   
 SPR .MV     07 010 01 00:   SPONTANEOUS POTENTIAL
 GRR .GAPI   07 310 01 00:   GAMMA RAY FROM RES. LOG.
 SFL .OHMM   07 220 01 00:   SHALLOW FOCUSED LOG RESISTIVITY
 ILD .OHMM   07 120 46 00:   INDUCTION LOG DEEP
 ILM .OHMM   07 120 44 00:   INDUCTION LOG MEDIUM
 CALD.IN     45 280 60 00:   CALIPER
 CORR.G/C3   45 356 01 00:   DENSITY CORRECTION
 RHOB.G/C3   45 350 01 00:   BULK DENSITY
 DPHI.DEC    45 890 12 00:   DENSITY POROSITY SANDSTONE
 DT  .US/F   60 520 00 00:   INTERVAL TRANSIT TIME
~PARAMETER INFORMATION
#MNEM.UNIT          VALUE    DESCRIPTION
#----------   ------------   ------------------------------
 PD  .                 GL:   PERMANENT DATUM
 EPD .F              5359:   ELEVATION PERMANENT DATUM
 LMF .                 KB:   LOG MEASURED FROM
 DAPD.F                10:   FEET ABOVE PERMANENT DATUM
 DMF .                 KB:   DRILLING MEASURED FROM
 EKB .F              5369:   KELLING BUSHING
 EGL .F              5359:   GROUND LEVEL
 DATE.            3-24-81:   RUN DATE
 RUN .                  1:   RUN NUMBER
 DD  .F              5700:   DEPTH DRILLER
 DL  .F              5700:   DEPTH LOGGER
 BLI .F              5694:   BOTTOM LOG INTERVAL
 TLI .F               559:   TOP LOG INTERVAL
 CS  .IN            9.625:   CASING SIZE
 CBD .F               554:   CASING BOTTOM DRILLER
 CBL .F               559:   CASING BOTTOM LOGGER
 BS  .IN             8.25:   BIT SIZE
 BSD .F              5700:   BIT SIZE AT DEPTH
 DFT .          DISPERSED:   DRILLING FLUID TYPE
 DFD .                9.7:   DRILLING FLUID DENSITY
 DFV .                 50:   DRILLING FLUID VISCOSITY
 DFPH.                8.5:   DRILLING FLUID PH
 DFL .                 10:   DRILLING FLUID LOSS
 MSS .            MUDTANK:   MUD SAMPLE SOURCE
 RMS .OHMM           2.34:   RESISTIVITY MUD SAMPLE
 MST .F                58:   MUD SAMPLE TEMPERATURE
 RMF .OHMM           1.67:   RESISTIVITY MUD FILTRATE SAMPLE
 MFST.F                65:   MUD FILTRATE SAMPLE TEMPERATURE
 MFSS.               MEAS:   MUD FILTRATE SAMPLE SOURCE
 RMB .OHMM            .98:   RESISTIVITY MUD AT BHT
 BHT .F               147:   BOTTOM HOLE TEMPERATURE
 TCS .HRS            2030:   TIME CURCULATED STOPPED
 TLAB.HRS            0100:   TIME LOGGER AT BOTTOM
 MRT .F               147:   MAXIMUM RECORDED TEMPERATURE
 LUN .               8035:   LOGGING UNIT NUMBER
 LUL .               CSPR:   LOGGING UNIT LOCATION
 ENGI.            BEATTIE:   RECORDING ENGINEER
 WITN.            TAUCHER:   WITNESSED BY
 CLNT.            A2DTECH:   CLIENT CODE
 ORIG.           5" PRINT:   ORIGIN OF DATA
 UWI .       490252131000:   UNIQUE WELL ID
 DICO. A2D Technologies, Inc.:   DIGITIZING COMPANY
~OTHER INFORMATION
~A   DEPT      SPR         GRR       SFL        ILD        ILM       CALD       CORR       RHOB       DPHI         DT   
# ...
 3289.0000   -23.3587   102.8730     6.3619     6.1611     5.8763  -999.2500  -999.2500  -999.2500  -999.2500  -999.2500
 3289.5000   -23.4530   104.2445     6.3019     6.1226     5.8494  -999.2500  -999.2500  -999.2500  -999.2500  -999.2500
 3290.0000   -23.5471   105.9672     6.2425     6.0843     5.8225  -999.2500  -999.2500  -999.2500  -999.2500  -999.2500
 3290.5000   -23.6417   109.1359     6.1837     6.0462     5.7958  -999.2500  -999.2500  -999.2500  -999.2500  -999.2500
 3291.0000   -23.7402   112.2881     6.1727     6.0084     5.7692  -999.2500  -999.2500  -999.2500  -999.2500  -999.2500
 3291.5000   -23.6699   115.0233     6.1727     5.9708     5.7427  -999.2500  -999.2500  -999.2500  -999.2500  -999.2500
 3292.0000   -23.5587   114.1632     6.1726     5.9483     5.6793  -999.2500  -999.2500  -999.2500  -999.2500  -999.2500
 3292.5000   -23.4459   111.9876     6.1726     5.9894     5.6986  -999.2500  -999.2500  -999.2500  -999.2500  -999.2500
 3293.0000   -23.3332   110.0997     6.1720     6.0240     5.7166  -999.2500  -999.2500  -999.2500  -999.2500  -999.2500
 3293.5000   -23.2207   110.8417     6.1867     6.0587     5.7340  -999.2500  -999.2500  -999.2500  -999.2500  -999.2500
 3294.0000   -23.1082   112.9181     6.2103     6.0937     5.7513  -999.2500  -999.2500  -999.2500  -999.2500  -999.2500
 3294.5000   -22.9955   113.2576     6.2621     6.1249     5.7686  -999.2500  -999.2500  -999.2500  -999.2500  -999.2500
 3295.0000   -22.8824   108.4263     6.4572     6.1494     5.7859  -999.2500  -999.2500  -999.2500  -999.2500  -999.2500
 3295.5000   -22.7682   103.0923     6.6583     6.1741     5.8033  -999.2500  -999.2500  -999.2500  -999.2500  -999.2500
 3296.0000   -22.8243   101.9708     6.8359     6.1988     5.8207  -999.2500  -999.2500  -999.2500  -999.2500  -999.2500
 3296.5000   -22.9384   106.2571     6.6072     6.2301     5.8396  -999.2500  -999.2500  -999.2500  -999.2500  -999.2500
 3297.0000   -23.0523   108.3167     6.3985     6.2059     5.8393  -999.2500  -999.2500  -999.2500  -999.2500  -999.2500
 3297.5000   -23.1664   106.6488     6.3465     6.1734     5.8393  -999.2500  -999.2500  -999.2500  -999.2500  -999.2500
 3298.0000   -23.2804   104.5445     6.2954     6.1410     5.8393  -999.2500  -999.2500  -999.2500  -999.2500  -999.2500
 3298.5000   -23.3945   102.4360     6.2301     6.1088     5.8393  -999.2500  -999.2500  -999.2500  -999.2500  -999.2500
 3299.0000   -23.5085   101.5639     6.2497     6.0768     5.8392  -999.2500  -999.2500  -999.2500  -999.2500  -999.2500
 3299.5000   -23.6225   103.0167     6.2771     6.0450     5.8323  -999.2500  -999.2500  -999.2500  -999.2500  -999.2500
 3300.0000   -23.7369   102.8384     6.3046     6.0033     5.8247  -999.2500  -999.2500  -999.2500  -999.2500  -999.2500
 3300.5000   -23.8519   102.2171     6.3322     6.0080     5.8170  -999.2500  -999.2500  -999.2500  -999.2500  -999.2500
 3301.0000   -23.9505   105.4857     6.3465     6.0244     5.8095  -999.2500  -999.2500  -999.2500  -999.2500  -999.2500
 3301.5000   -23.8410   109.3434     6.2850     6.0407     5.8017  -999.2500  -999.2500  -999.2500  -999.2500  -999.2500
 3302.0000   -23.7307   110.4357     6.2372     6.0595     5.7943  -999.2500  -999.2500  -999.2500  -999.2500  -999.2500
 3302.5000   -23.6217   106.8279     6.1899     6.0154     5.7867  -999.2500  -999.2500  -999.2500  -999.2500  -999.2500
 3303.0000   -23.5122   104.6021     6.1078     5.9174     5.6808  -999.2500  -999.2500  -999.2500  -999.2500  -999.2500
 3303.5000   -23.4025   105.0372     6.0071     5.8211     5.5585  -999.2500  -999.2500  -999.2500  -999.2500  -999.2500
 3304.0000   -23.2682   104.7747     5.9081     5.7263     5.4387  -999.2500  -999.2500  -999.2500  -999.2500  -999.2500
 3304.5000   -23.1187   101.7039     5.8106     5.6331     5.3216  -999.2500  -999.2500  -999.2500  -999.2500  -999.2500
 3305.0000   -22.9683   102.8027     5.7148     5.5413     5.2624  -999.2500  -999.2500  -999.2500  -999.2500  -999.2500
 3305.5000   -22.8174   104.5799     5.6208     5.4511     5.2324  -999.2500  -999.2500  -999.2500  -999.2500  -999.2500
 3306.0000   -22.6674   104.6755     5.5241     5.3624     5.2025  -999.2500  -999.2500  -999.2500  -999.2500  -999.2500
 3306.5000   -22.5624   102.4826     5.4972     5.3081     5.1729  -999.2500  -999.2500  -999.2500  -999.2500  -999.2500
 3307.0000   -22.5635   101.4235     5.4742     5.2739     5.1434  -999.2500  -999.2500  -999.2500  -999.2500  -999.2500
 3307.5000   -22.5662   103.5155     5.4838     5.2907     5.1259  -999.2500  -999.2500  -999.2500  -999.2500  -999.2500
 3308.0000   -22.8361   105.8801     5.4935     5.3137     5.1150  -999.2500  -999.2500  -999.2500  -999.2500  -999.2500
 3308.5000   -23.1423   109.7685     5.5031     5.3370     5.1040  -999.2500  -999.2500  -999.2500  -999.2500  -999.2500
 3309.0000   -23.4520   113.8794     5.5128     5.3604     5.0931  -999.2500  -999.2500  -999.2500  -999.2500  -999.2500
 3309.5000   -23.5800   115.7280     5.5238     5.3725     5.0822  -999.2500  -999.2500  -999.2500  -999.2500  -999.2500
 3310.0000   -23.6163   111.2157     5.4957     5.3347     5.0713  -999.2500  -999.2500  -999.2500  -999.2500  -999.2500
 3310.5000   -23.6514   102.5106     5.4540     5.3052     5.0604  -999.2500  -999.2500  -999.2500  -999.2500  -999.2500
 3311.0000   -23.6864    97.3141     5.4126     5.2758     5.0496  -999.2500  -999.2500  -999.2500  -999.2500  -999.2500
 3311.5000   -23.7224    94.9334     5.3725     5.2467     5.0388  -999.2500  -999.2500  -999.2500  -999.2500  -999.2500
 3312.0000   -23.7532    94.6938     5.3935     5.2177     5.0280  -999.2500  -999.2500  -999.2500  -999.2500  -999.2500
 3312.5000   -23.6011    96.7416     5.4225     5.1888     5.0173  -999.2500  -999.2500  -999.2500  -999.2500  -999.2500
 3313.0000   -23.4370    99.7605     5.3725     5.1772     5.0066  -999.2500  -999.2500  -999.2500  -999.2500  -999.2500
 3313.5000   -23.2734   102.4082     5.3912     5.2116     4.9958  -999.2500  -999.2500  -999.2500  -999.2500  -999.2500
 3314.0000   -23.1100   103.7901     5.4408     5.2465     4.9890  -999.2500  -999.2500  -999.2500  -999.2500  -999.2500
 3314.5000   -22.9461   101.1806     5.4907     5.2818     5.0404  -999.2500  -999.2500  -999.2500  -999.2500  -999.2500
 3315.0000   -22.7838    98.3362     5.5372     5.3172     5.0849  -999.2500  -999.2500  -999.2500  -999.2500  -999.2500
 3315.5000   -22.7632    96.1889     5.5761     5.3529     5.1299  -999.2500  -999.2500  -999.2500  -999.2500  -999.2500
 3316.0000   -22.7631    99.1241     5.6156     5.3889     5.1749  -999.2500  -999.2500  -999.2500  -999.2500  -999.2500
 3316.5000   -22.7632   105.4943     5.6552     5.4250     5.2258  -999.2500  -999.2500  -999.2500  -999.2500  -999.2500
 3317.0000   -22.7635   111.8294     5.6949     5.4615     5.2251  -999.2500  -999.2500  -999.2500  -999.2500  -999.2500
 3317.5000   -22.7644   113.8296     5.7321     5.4729     5.2253  -999.2500  -999.2500  -999.2500  -999.2500  -999.2500
 3318.0000   -22.8604   114.9231     5.6518     5.4302     5.2254  -999.2500  -999.2500  -999.2500  -999.2500  -999.2500
 3318.5000   -23.1077   116.4027     5.5784     5.3911     5.2253  -999.2500  -999.2500  -999.2500  -999.2500  -999.2500
 3319.0000   -23.3566   118.1565     5.5238     5.3522     5.2253  -999.2500  -999.2500  -999.2500  -999.2500  -999.2500
 3319.5000   -23.5893   118.8419     5.5751     5.3230     5.2253  -999.2500  -999.2500  -999.2500  -999.2500  -999.2500
 3320.0000   -23.8254   118.4172     5.6017     5.3584     5.2253  -999.2500  -999.2500  -999.2500  -999.2500  -999.2500
 3320.5000   -24.0620   118.5639     5.6270     5.4152     5.2253  -999.2500  -999.2500  -999.2500  -999.2500  -999.2500
 3321.0000   -24.2987   121.9676     5.6812     5.4727     5.2253  -999.2500  -999.2500  -999.2500  -999.2500  -999.2500
 3321.5000   -24.5349   125.3730     5.7723     5.5307     5.2254  -999.2500  -999.2500  -999.2500  -999.2500  -999.2500
 3322.0000   -24.7540   125.4500     5.8649     5.5894     5.2255  -999.2500  -999.2500  -999.2500  -999.2500  -999.2500
