~VERSION INFORMATION
 VERS.                2.0:   CWLS LOG ASCII STANDARD - VERSION 2.0
 WRAP.                 NO:   ONE LINE PER DEPTH STEP
~WELL INFORMATION
#MNEM.UNIT      DATA TYPE    INFORMATION
#----------   ------------   ------------------------------
 STRT.F          542.0000:   START DEPTH
 STOP.F         5696.0000:   STOP DEPTH
 STEP.F            0.5000:   STEP LENGTH
 NULL.          -999.2500:   NO VALUE
 COMP.       DAVIS OIL CO:   COMPANY
 WELL. WEST TEAPOT DOME STATE #1-16:   WELL
 FLD .             TEAPOT:   FIELD
 LOC .      S16 T38N R78W:   LOCATION
 CNTY.            NATRONA:   COUNTY
 STAT.            WYOMING:   STATE
 CTRY. UNITED STATES OF AMERICA:   COUNTRY
 SRVC.       Schlumberger:   SERVICE COMPANY
 DATE.        24-MAR-1981:   LOGDATE
 API .       490252131000:   API NUMBER
~CURVE INFORMATION
#MNEM.UNIT       API CODE    CURVE DESCRIPTION
#----------   ------------   ------------------------------
 DEPT.F                  :   
 SPR .MV     07 010 01 00:   SPONTANEOUS POTENTIAL
 GRR .GAPI   07 310 01 00:   GAMMA RAY FROM RES. LOG.
 SFL .OHMM   07 220 01 00:   SHALLOW FOCUSED LOG RESISTIVITY
 ILD .OHMM   07 120 46 00:   INDUCTION LOG DEEP
 ILM .OHMM   07 120 44 00:   INDUCTION LOG MEDIUM
 CALD.IN     45 280 60 00:   CALIPER
 CORR.G/C3   45 356 01 00:   DENSITY CORRECTION
 RHOB.G/C3   45 350 01 00:   BULK DENSITY
 DPHI.DEC    45 890 12 00:   DENSITY POROSITY SANDSTONE
 DT  .US/F   60 520 00 00:   INTERVAL TRANSIT TIME
~PARAMETER INFORMATION
#MNEM.UNIT          VALUE    DESCRIPTION
#----------   ------------   ------------------------------
 PD  .                 GL:   PERMANENT DATUM
 EPD .F              5359:   ELEVATION PERMANENT DATUM
 LMF .                 KB:   LOG MEASURED FROM
 DAPD.F                10:   FEET ABOVE PERMANENT DATUM
 DMF .                 KB:   DRILLING MEASURED FROM
 EKB .F              5369:   KELLING BUSHING
 EGL .F              5359:   GROUND LEVEL
 DATE.            3-24-81:   RUN DATE
 RUN .                  1:   RUN NUMBER
 DD  .F              5700:   DEPTH DRILLER
 DL  .F              5700:   DEPTH LOGGER
 BLI .F              5694:   BOTTOM LOG INTERVAL
 TLI .F               559:   TOP LOG INTERVAL
 CS  .IN            9.625:   CASING SIZE
 CBD .F               554:   CASING BOTTOM DRILLER
 CBL .F               559:   CASING BOTTOM LOGGER
 BS  .IN             8.25:   BIT SIZE
 BSD .F              5700:   BIT SIZE AT DEPTH
 DFT .          DISPERSED:   DRILLING FLUID TYPE
 DFD .                9.7:   DRILLING FLUID DENSITY
 DFV .                 50:   DRILLING FLUID VISCOSITY
 DFPH.                8.5:   DRILLING FLUID PH
 DFL .                 10:   DRILLING FLUID LOSS
 MSS .            MUDTANK:   MUD SAMPLE SOURCE
 RMS .OHMM           2.34:   RESISTIVITY MUD SAMPLE
 MST .F                58:   MUD SAMPLE TEMPERATURE
 RMF .OHMM           1.67:   RESISTIVITY MUD FILTRATE SAMPLE
 MFST.F                65:   MUD FILTRATE SAMPLE TEMPERATURE
 MFSS.               MEAS:   MUD FILTRATE SAMPLE SOURCE
 RMB .OHMM            .98:   RESISTIVITY MUD AT BHT
 BHT .F               147:   BOTTOM HOLE TEMPERATURE
 TCS .HRS            2030:   TIME CURCULATED STOPPED
 TLAB.HRS            0100:   TIME LOGGER AT BOTTOM
 MRT .F               147:   MAXIMUM RECORDED TEMPERATURE
 LUN .               8035:   LOGGING UNIT NUMBER
 LUL .               CSPR:   LOGGING UNIT LOCATION
 ENGI.            BEATTIE:   RECORDING ENGINEER
 WITN.            TAUCHER:   WITNESSED BY
 CLNT.            A2DTECH:   CLIENT CODE
 ORIG.           5" PRINT:   ORIGIN OF DATA
 UWI .       490252131000:   UNIQUE WELL ID
 DICO. A2D Technologies, Inc.:   DIGITIZING COMPANY
~OTHER INFORMATION
~A   DEPT      SPR         GRR       SFL        ILD        ILM       CALD       CORR       RHOB       DPHI         DT   
# ...
 5332.5000   -20.0232   205.6207     9.0110     7.1919     7.5200     8.7994     0.0246     2.4647     0.1289    87.3755
 5333.0000   -20.0702   200.4073    10.1263     7.0141     7.2077     8.8007     0.0311     2.4735     0.1242    85.4754
 5333.5000   -20.1173   196.7378    10.6688     6.8344     6.6512     8.8326     0.0348     2.4701     0.1246    86.9254
 5334.0000   -20.1642   195.0249     8.9183     6.9585     6.1158     8.8543     0.0341     2.4627     0.1308    87.9865
 5334.5000   -20.2549   191.8980     7.4309     7.0389     6.5999     8.8181     0.0240     2.4531     0.1369    88.3907
 5335.0000   -20.3646   189.4005     7.0268     7.0957     7.3013     8.7835     0.0189     2.4438     0.1416    87.4607
 5335.5000   -20.4746   191.2392     9.7748     7.1208     7.5203     8.7695     0.0152     2.4358     0.1460    87.5267
 5336.0000   -20.5751   194.4460    12.7071     7.1460     7.5669     8.7860     0.0191     2.4387     0.1470    88.0562
 5336.5000   -20.5771   199.7989    12.0855     7.2547     7.7032     8.8014     0.0269     2.4557     0.1298    88.4985
 5337.0000   -20.5766   200.4999    10.9747     7.5666     7.8960     8.7987     0.0376     2.4879     0.1138    88.0420
 5337.5000   -20.5765   203.3887    10.4622     7.9254     8.0735     8.7952     0.0442     2.4936     0.1112    87.2347
 5338.0000   -20.5766   202.1768    10.7120     7.9254     8.0998     8.7918     0.0409     2.4861     0.1155    86.9860
 5338.5000   -20.5766   199.5891    10.9382     7.9254     8.1486     8.7884     0.0348     2.4801     0.1196    86.6628
 5339.0000   -20.5765   191.3035    11.1069     7.9254     7.9482     8.7850     0.0354     2.4855     0.1166    86.1031
 5339.5000   -20.5760   182.9202    11.4539     7.7038     7.7678     8.7816     0.0377     2.4940     0.1100    85.6674
 5340.0000   -20.5235   179.6497    11.6913     7.4581     7.5915     8.7783     0.0421     2.4968     0.1096    85.9560
 5340.5000   -20.3962   182.7758    10.7487     7.0922     7.4192     8.7749     0.0486     2.4960     0.1090    86.6976
 5341.0000   -20.2697   186.5107     9.4582     7.1507     7.3597     8.7715     0.0587     2.5003     0.1045    85.9079
 5341.5000   -20.1430   185.5292     8.1486     7.2832     7.5492     8.7681     0.0694     2.5262     0.0930    83.9831
 5342.0000   -20.0163   181.7124     9.3605     7.3597     7.6373     8.7647     0.0784     2.5371     0.0872    82.0540
 5342.5000   -19.8895   178.6142    12.8252     6.6966     7.3131     8.7658     0.0658     2.5178     0.0986    80.8892
 5343.0000   -19.7631   183.1672    13.1864     6.1091     6.6469     8.7865     0.0491     2.4824     0.1109    81.8162
 5343.5000   -19.6364   199.5763    11.4233     5.5731     5.6863     8.8072     0.0401     2.4739     0.1220    83.2572
 5344.0000   -19.6261   206.4539     9.1252     5.0317     4.8644     8.8278     0.0536     2.4791     0.1228    85.9042
 5344.5000   -19.7443   241.7635     6.7863     4.3556     4.1594     8.8437     0.0621     2.4830     0.1176    89.4565
 5345.0000   -19.8617   270.9042     5.0468     4.1478     3.6960     8.8505     0.0555     2.4799     0.1191    91.2980
 5345.5000   -19.9793   264.7769     3.7533     4.0698     3.5128     8.8572     0.0456     2.4750     0.1216    90.3994
 5346.0000   -20.0970   240.9191     3.1116     4.1516     3.7891     8.8640     0.0375     2.4844     0.1163    87.5836
 5346.5000   -20.2147   195.5989     4.6163     4.1844     4.1967     8.8708     0.0387     2.5074     0.1047    84.3725
 5347.0000   -20.3323   171.5663     7.7458     4.1834     4.6427     8.8775     0.0446     2.5264     0.0908    82.7928
 5347.5000   -20.4511   162.2853    12.2452     4.1834     4.9293     8.8830     0.0477     2.5262     0.0908    83.6296
 5348.0000   -20.5750   163.7751    10.8861     4.7783     5.1708     8.8873     0.0413     2.5165     0.0976    84.6813
 5348.5000   -20.4496   166.5754     8.1486     5.3677     5.5976     8.8916     0.0235     2.4993     0.1088    85.5124
 5349.0000   -20.2738   168.8766     8.1840     5.9804     6.0037     8.8960     0.0179     2.4928     0.1122    85.6545
 5349.5000   -20.0973   170.7207     8.2526     6.2192     6.0037     8.9003     0.0176     2.4895     0.1141    86.4018
 5350.0000   -19.9208   172.5737     8.3044     6.1197     6.0039     8.9046     0.0210     2.4868     0.1154    87.3960
 5350.5000   -19.7444   173.4886     7.8005     6.0211     6.0038     8.9089     0.0244     2.4853     0.1166    88.3903
 5351.0000   -19.5857   171.0616     7.3764     5.8930     6.0036     8.9132     0.0272     2.4899     0.1144    88.8524
 5351.5000   -19.5239   167.5659     7.0943     5.8931     6.0518     8.9175     0.0297     2.4977     0.1088    88.8989
 5352.0000   -19.4397   163.9436     7.2739     5.9512     6.1075     8.9219     0.0298     2.5020     0.1060    88.4495
 5352.5000   -19.3538   160.3478     7.6818     6.0059     6.1636     8.9262     0.0261     2.5020     0.1060    88.0357
 5353.0000   -19.2663   157.2603     8.1136     6.0595     6.2202     8.9305     0.0206     2.5021     0.1062    87.9379
 5353.5000   -19.1957   159.7934     8.3816     6.0595     6.2301     8.9348     0.0151     2.4970     0.1090    88.1603
 5354.0000   -19.4893   166.1311     8.3004     6.1158     6.2302     8.9391     0.0082     2.4870     0.1141    88.5207
 5354.5000   -19.7937   172.3793     8.2061     6.2059     6.2302     8.9398     0.0007     2.4701     0.1258    88.7988
 5355.0000   -20.0961   176.3213     8.1128     6.2968     6.2301     8.9398     0.0046     2.4663     0.1284    88.8626
 5355.5000   -20.3990   174.6876     8.0735     6.3891     6.2302     8.9398     0.0136     2.4771     0.1208    88.6755
 5356.0000   -20.7075   172.0310     8.5440     6.4827     6.2301     8.9398     0.0227     2.4907     0.1117    88.1376
 5356.5000   -20.8293   174.3553     8.9679     6.5257     6.2282     8.9398     0.0278     2.5035     0.1053    87.5976
 5357.0000   -20.9289   180.3081     9.5372     6.4990     6.2149     8.9398     0.0277     2.5055     0.1040    87.7624
 5357.5000   -21.0253   187.5926     9.4206     6.4762     6.2017     8.9398     0.0276     2.5050     0.1048    88.4011
 5358.0000   -21.1226   194.9316     9.0485     6.4535     6.1886     8.9398     0.0232     2.4980     0.1093    89.1684
 5358.5000   -21.0531   198.1686     8.6912     6.4308     6.1754     8.9398     0.0125     2.4810     0.1184    89.4631
 5359.0000   -20.8181   192.2702     8.3507     6.4082     6.1624     8.9398     0.0041     2.4722     0.1240    89.1194
 5359.5000   -20.5832   185.8495     8.0257     6.3857     6.1494     8.9398     0.0043     2.4719     0.1259    88.2983
 5360.0000   -20.3483   179.0207     7.8465     6.3633     6.1363     8.9402     0.0089     2.4782     0.1182    87.2633
 5360.5000   -20.1143   201.0209     8.4072     6.3465     6.1227     8.9253     0.0253     2.5066     0.1066    86.0961
 5361.0000   -19.9811   200.1642     8.9420     6.2368     6.0267     8.9060     0.0353     2.5175     0.0956    86.0961
 5361.5000   -19.9809   212.0105     8.5599     6.0265     5.8370     8.8864     0.0395     2.5205     0.0944    85.4268
 5362.0000   -19.9799   228.0915     7.9991     5.6340     5.2398     8.8648     0.0387     2.5175     0.0992    84.2683
 5362.5000   -19.9800   239.5301     7.3483     5.1613     4.7140     8.9187     0.0486     2.5185     0.0947    83.6937
 5363.0000   -19.9800   254.4681     6.2288     4.7910     4.2410     8.9805     0.0626     2.5220     0.0928    85.2837
 5363.5000   -19.9796   274.0289     5.1718     4.7215     4.1458     9.0256     0.0544     2.5076     0.1013    86.7280
 5364.0000   -19.9801   280.0947     4.1076     4.7822     4.4330     9.0224     0.0565     2.4826     0.1121    87.6977
 5364.5000   -20.0197   235.1876     4.6673     4.8382     4.6924     8.9954     0.0260     2.4834     0.1188    86.6469
 5365.0000   -20.2822   198.7281     6.0707     4.8943     4.9668     8.9829     0.0234     2.4966     0.1106    85.2352
 5365.5000   -20.5456   187.7579     7.9872     4.9433     5.2574     8.9839     0.0265     2.5040     0.1044    84.8949
