~VERSION INFORMATION
 VERS.                2.0:   CWLS LOG ASCII STANDARD - VERSION 2.0
 WRAP.                 NO:   ONE LINE PER DEPTH STEP
~WELL INFORMATION
#MNEM.UNIT      DATA TYPE    INFORMATION
#----------   ------------   ------------------------------
 STRT.F          542.0000:   START DEPTH
 STOP.F         5696.0000:   STOP DEPTH
 STEP.F            0.5000:   STEP LENGTH
 NULL.          -999.2500:   NO VALUE
 COMP.       DAVIS OIL CO:   COMPANY
 WELL. WEST TEAPOT DOME STATE #1-16:   WELL
 FLD .             TEAPOT:   FIELD
 LOC .      S16 T38N R78W:   LOCATION
 CNTY.            NATRONA:   COUNTY
 STAT.            WYOMING:   STATE
 CTRY. UNITED STATES OF AMERICA:   COUNTRY
 SRVC.       Schlumberger:   SERVICE COMPANY
 DATE.        24-MAR-1981:   LOGDATE
 API .       490252131000:   API NUMBER
~CURVE INFORMATION
#MNEM.UNIT       API CODE    CURVE DESCRIPTION
#----------   ------------   ------------------------------
 DEPT.F                  :   
 SPR .MV     07 010 01 00:   SPONTANEOUS POTENTIAL
 GRR .GAPI   07 310 01 00:   GAMMA RAY FROM RES. LOG.
 SFL .OHMM   07 220 01 00:   SHALLOW FOCUSED LOG RESISTIVITY
 ILD .OHMM   07 120 46 00:   INDUCTION LOG DEEP
 ILM .OHMM   07 120 44 00:   INDUCTION LOG MEDIUM
 CALD.IN     45 280 60 00:   CALIPER
 CORR.G/C3   45 356 01 00:   DENSITY CORRECTION
 RHOB.G/C3   45 350 01 00:   BULK DENSITY
 DPHI.DEC    45 890 12 00:   DENSITY POROSITY SANDSTONE
 DT  .US/F   60 520 00 00:   INTERVAL TRANSIT TIME
~PARAMETER INFORMATION
#MNEM.UNIT          VALUE    DESCRIPTION
#----------   ------------   ------------------------------
 PD  .                 GL:   PERMANENT DATUM
 EPD .F              5359:   ELEVATION PERMANENT DATUM
 LMF .                 KB:   LOG MEASURED FROM
 DAPD.F                10:   FEET ABOVE PERMANENT DATUM
 DMF .                 KB:   DRILLING MEASURED FROM
 EKB .F              5369:   KELLING BUSHING
 EGL .F              5359:   GROUND LEVEL
 DATE.            3-24-81:   RUN DATE
 RUN .                  1:   RUN NUMBER
 DD  .F              5700:   DEPTH DRILLER
 DL  .F              5700:   DEPTH LOGGER
 BLI .F              5694:   BOTTOM LOG INTERVAL
 TLI .F               559:   TOP LOG INTERVAL
 CS  .IN            9.625:   CASING SIZE
 CBD .F               554:   CASING BOTTOM DRILLER
 CBL .F               559:   CASING BOTTOM LOGGER
 BS  .IN             8.25:   BIT SIZE
 BSD .F              5700:   BIT SIZE AT DEPTH
 DFT .          DISPERSED:   DRILLING FLUID TYPE
 DFD .                9.7:   DRILLING FLUID DENSITY
 DFV .                 50:   DRILLING FLUID VISCOSITY
 DFPH.                8.5:   DRILLING FLUID PH
 DFL .                 10:   DRILLING FLUID LOSS
 MSS .            MUDTANK:   MUD SAMPLE SOURCE
 RMS .OHMM           2.34:   RESISTIVITY MUD SAMPLE
 MST .F                58:   MUD SAMPLE TEMPERATURE
 RMF .OHMM           1.67:   RESISTIVITY MUD FILTRATE SAMPLE
 MFST.F                65:   MUD FILTRATE SAMPLE TEMPERATURE
 MFSS.               MEAS:   MUD FILTRATE SAMPLE SOURCE
 RMB .OHMM            .98:   RESISTIVITY MUD AT BHT
 BHT .F               147:   BOTTOM HOLE TEMPERATURE
 TCS .HRS            2030:   TIME CURCULATED STOPPED
 TLAB.HRS            0100:   TIME LOGGER AT BOTTOM
 MRT .F               147:   MAXIMUM RECORDED TEMPERATURE
 LUN .               8035:   LOGGING UNIT NUMBER
 LUL .               CSPR:   LOGGING UNIT LOCATION
 ENGI.            BEATTIE:   RECORDING ENGINEER
 WITN.            TAUCHER:   WITNESSED BY
 CLNT.            A2DTECH:   CLIENT CODE
 ORIG.           5" PRINT:   ORIGIN OF DATA
 UWI .       490252131000:   UNIQUE WELL ID
 DICO. A2D Technologies, Inc.:   DIGITIZING COMPANY
~OTHER INFORMATION
~A   DEPT      SPR         GRR       SFL        ILD        ILM       CALD       CORR       RHOB       DPHI         DT   
# ...
  910.5000   -20.1416   108.0234     5.8661     7.3585     6.0211  -999.2500  -999.2500  -999.2500  -999.2500  -999.2500
  911.0000   -20.3570   102.8906     5.8328     7.1597     5.9735  -999.2500  -999.2500  -999.2500  -999.2500  -999.2500
  911.5000   -20.6445    98.4899     5.7996     6.9663     5.8982  -999.2500  -999.2500  -999.2500  -999.2500  -999.2500
  912.0000   -20.9340   101.5210     5.7478     6.7782     5.8238  -999.2500  -999.2500  -999.2500  -999.2500  -999.2500
  912.5000   -21.2254   107.2451     5.6826     6.5859     5.7504  -999.2500  -999.2500  -999.2500  -999.2500  -999.2500
  913.0000   -21.5156   109.7411     5.6270     6.4970     5.7161  -999.2500  -999.2500  -999.2500  -999.2500  -999.2500
  913.5000   -21.7355   110.1403     5.5619     6.4035     5.6942  -999.2500  -999.2500  -999.2500  -999.2500  -999.2500
  914.0000   -21.4772   107.8620     5.4931     6.3116     5.6256  -999.2500  -999.2500  -999.2500  -999.2500  -999.2500
  914.5000   -21.2138   103.4499     5.3933     6.2298     5.4570  -999.2500  -999.2500  -999.2500  -999.2500  -999.2500
  915.0000   -20.9769    99.0564     5.1346     6.1812     5.2929  -999.2500  -999.2500  -999.2500  -999.2500  -999.2500
  915.5000   -20.9443    95.2529     4.8077     6.1368     5.0809  -999.2500  -999.2500  -999.2500  -999.2500  -999.2500
  916.0000   -20.9127    93.3018     4.9956     6.0927     5.1048  -999.2500  -999.2500  -999.2500  -999.2500  -999.2500
  916.5000   -20.8802    92.4418     5.4316     6.0390     5.1769  -999.2500  -999.2500  -999.2500  -999.2500  -999.2500
  917.0000   -20.8472    92.2307     5.8935     5.9548     5.1060  -999.2500  -999.2500  -999.2500  -999.2500  -999.2500
  917.5000   -20.8149    94.2980     5.8935     5.8718     4.9441  -999.2500  -999.2500  -999.2500  -999.2500  -999.2500
  918.0000   -20.7879    98.3637     5.3741     5.7899     4.7874  -999.2500  -999.2500  -999.2500  -999.2500  -999.2500
  918.5000   -20.5800   101.9028     4.9781     5.7092     4.6329  -999.2500  -999.2500  -999.2500  -999.2500  -999.2500
  919.0000   -20.3371   100.4611     4.6728     5.6270     4.5642  -999.2500  -999.2500  -999.2500  -999.2500  -999.2500
  919.5000   -20.1276    97.7317     4.6732     5.5960     4.5479  -999.2500  -999.2500  -999.2500  -999.2500  -999.2500
  920.0000   -19.9887    94.9195     4.6747     5.5642     4.5479  -999.2500  -999.2500  -999.2500  -999.2500  -999.2500
  920.5000   -19.8497    95.5752     4.6759     5.5325     4.5479  -999.2500  -999.2500  -999.2500  -999.2500  -999.2500
  921.0000   -19.8105    98.6751     4.6761     5.5236     4.5479  -999.2500  -999.2500  -999.2500  -999.2500  -999.2500
  921.5000   -19.9151   101.3425     4.6756     5.5237     4.5479  -999.2500  -999.2500  -999.2500  -999.2500  -999.2500
  922.0000   -20.0162   100.6925     4.7146     5.5237     4.6510  -999.2500  -999.2500  -999.2500  -999.2500  -999.2500
  922.5000   -20.1175   100.0259     4.7968     5.5238     4.8681  -999.2500  -999.2500  -999.2500  -999.2500  -999.2500
  923.0000   -20.2190    99.3610     4.8077     5.5238     4.9430  -999.2500  -999.2500  -999.2500  -999.2500  -999.2500
  923.5000   -20.3204    98.7029     4.6931     5.4707     4.8702  -999.2500  -999.2500  -999.2500  -999.2500  -999.2500
  924.0000   -20.4217    98.2365     4.5873     5.4211     4.7634  -999.2500  -999.2500  -999.2500  -999.2500  -999.2500
  924.5000   -20.5231    99.6706     4.5060     5.3718     4.8077  -999.2500  -999.2500  -999.2500  -999.2500  -999.2500
  925.0000   -20.6246   101.1407     4.5479     5.3230     4.5489  -999.2500  -999.2500  -999.2500  -999.2500  -999.2500
  925.5000   -20.7260   101.3166     4.4113     5.2386     4.3441  -999.2500  -999.2500  -999.2500  -999.2500  -999.2500
  926.0000   -20.8272    98.2921     4.3422     5.1556     4.1829  -999.2500  -999.2500  -999.2500  -999.2500  -999.2500
  926.5000   -20.9290    95.7781     4.5795     5.0743     4.3014  -999.2500  -999.2500  -999.2500  -999.2500  -999.2500
  927.0000   -20.9731    97.3713     4.8524     4.9883     4.3022  -999.2500  -999.2500  -999.2500  -999.2500  -999.2500
  927.5000   -20.9730   100.5865     4.6390     4.9894     4.1835  -999.2500  -999.2500  -999.2500  -999.2500  -999.2500
  928.0000   -20.8530    99.9916     4.2667     4.9892     4.1076  -999.2500  -999.2500  -999.2500  -999.2500  -999.2500
  928.5000   -20.6253    98.1826     3.9583     4.9989     4.1458  -999.2500  -999.2500  -999.2500  -999.2500  -999.2500
  929.0000   -20.3972    99.8351     3.9472     5.0184     4.1076  -999.2500  -999.2500  -999.2500  -999.2500  -999.2500
  929.5000   -20.1681   101.6550     3.9219     5.0363     4.3170  -999.2500  -999.2500  -999.2500  -999.2500  -999.2500
  930.0000   -19.9404   102.3800     4.0671     5.2084     4.5186  -999.2500  -999.2500  -999.2500  -999.2500  -999.2500
  930.5000   -19.7139    97.0175     4.3971     5.3732     4.7302  -999.2500  -999.2500  -999.2500  -999.2500  -999.2500
  931.0000   -19.6227    91.7635     4.7535     5.5440     4.9518  -999.2500  -999.2500  -999.2500  -999.2500  -999.2500
  931.5000   -19.7116    88.3053     5.1392     5.7203     5.1312  -999.2500  -999.2500  -999.2500  -999.2500  -999.2500
  932.0000   -19.7816    87.4445     5.5563     5.9021     5.1310  -999.2500  -999.2500  -999.2500  -999.2500  -999.2500
  932.5000   -19.7162    89.9187     5.7321     6.0897     5.1303  -999.2500  -999.2500  -999.2500  -999.2500  -999.2500
  933.0000   -19.6497    92.9789     5.6470     6.2881     5.1295  -999.2500  -999.2500  -999.2500  -999.2500  -999.2500
  933.5000   -19.5811    94.9633     5.5406     6.2881     5.2739  -999.2500  -999.2500  -999.2500  -999.2500  -999.2500
  934.0000   -19.7066    95.0362     5.4363     6.2218     5.2739  -999.2500  -999.2500  -999.2500  -999.2500  -999.2500
  934.5000   -19.8692    94.9866     5.3339     6.1537     5.2239  -999.2500  -999.2500  -999.2500  -999.2500  -999.2500
  935.0000   -20.0330    96.4669     5.2253     6.0862     5.1807  -999.2500  -999.2500  -999.2500  -999.2500  -999.2500
  935.5000   -20.1965    98.4181     5.2467     6.0196     5.1379  -999.2500  -999.2500  -999.2500  -999.2500  -999.2500
  936.0000   -20.3598    99.8105     5.2739     5.9536     5.0954  -999.2500  -999.2500  -999.2500  -999.2500  -999.2500
  936.5000   -20.5232    96.7515     5.1594     5.8935     5.0533  -999.2500  -999.2500  -999.2500  -999.2500  -999.2500
  937.0000   -20.6866    93.3278     4.9971     5.7976     5.0116  -999.2500  -999.2500  -999.2500  -999.2500  -999.2500
  937.5000   -20.8503    91.3170     4.8449     5.7321     4.9430  -999.2500  -999.2500  -999.2500  -999.2500  -999.2500
  938.0000   -21.0149    91.8038     4.6525     5.7474     4.9695  -999.2500  -999.2500  -999.2500  -999.2500  -999.2500
  938.5000   -21.1664    95.3357     4.4645     5.7620     5.0009  -999.2500  -999.2500  -999.2500  -999.2500  -999.2500
  939.0000   -21.0745    98.8316     4.6346     5.7766     5.0325  -999.2500  -999.2500  -999.2500  -999.2500  -999.2500
  939.5000   -20.9750   100.1686     4.8510     5.8189     5.0642  -999.2500  -999.2500  -999.2500  -999.2500  -999.2500
  940.0000   -20.8767    98.6923     5.0775     5.9033     5.0962  -999.2500  -999.2500  -999.2500  -999.2500  -999.2500
  940.5000   -20.7787    96.3213     5.2625     5.9890     5.1295  -999.2500  -999.2500  -999.2500  -999.2500  -999.2500
  941.0000   -20.6807    97.6853     5.3629     6.0759     5.1437  -999.2500  -999.2500  -999.2500  -999.2500  -999.2500
  941.5000   -20.5827    99.3387     5.4749     6.1158     5.1583  -999.2500  -999.2500  -999.2500  -999.2500  -999.2500
  942.0000   -20.4841    98.6940     5.3938     6.0826     5.1772  -999.2500  -999.2500  -999.2500  -999.2500  -999.2500
  942.5000   -20.3812    97.8282     5.2481     5.9825     5.1512  -999.2500  -999.2500  -999.2500  -999.2500  -999.2500
  943.0000   -20.2909    98.6607     5.1128     5.8935     5.1146  -999.2500  -999.2500  -999.2500  -999.2500  -999.2500
  943.5000   -20.1967   100.2037     4.9871     5.7892     5.0814  -999.2500  -999.2500  -999.2500  -999.2500  -999.2500
