~VERSION INFORMATION
 VERS.                2.0:   CWLS LOG ASCII STANDARD - VERSION 2.0
 WRAP.                 NO:   ONE LINE PER DEPTH STEP
~WELL INFORMATION
#MNEM.UNIT      DATA TYPE    INFORMATION
#----------   ------------   ------------------------------
 STRT.F          542.0000:   START DEPTH
 STOP.F         5696.0000:   STOP DEPTH
 STEP.F            0.5000:   STEP LENGTH
 NULL.          -999.2500:   NO VALUE
 COMP.       DAVIS OIL CO:   COMPANY
 WELL. WEST TEAPOT DOME STATE #1-16:   WELL
 FLD .             TEAPOT:   FIELD
 LOC .      S16 T38N R78W:   LOCATION
 CNTY.            NATRONA:   COUNTY
 STAT.            WYOMING:   STATE
 CTRY. UNITED STATES OF AMERICA:   COUNTRY
 SRVC.       Schlumberger:   SERVICE COMPANY
 DATE.        24-MAR-1981:   LOGDATE
 API .       490252131000:   API NUMBER
~CURVE INFORMATION
#MNEM.UNIT       API CODE    CURVE DESCRIPTION
#----------   ------------   ------------------------------
 DEPT.F                  :   
 SPR .MV     07 010 01 00:   SPONTANEOUS POTENTIAL
 GRR .GAPI   07 310 01 00:   GAMMA RAY FROM RES. LOG.
 SFL .OHMM   07 220 01 00:   SHALLOW FOCUSED LOG RESISTIVITY
 ILD .OHMM   07 120 46 00:   INDUCTION LOG DEEP
 ILM .OHMM   07 120 44 00:   INDUCTION LOG MEDIUM
 CALD.IN     45 280 60 00:   CALIPER
 CORR.G/C3   45 356 01 00:   DENSITY CORRECTION
 RHOB.G/C3   45 350 01 00:   BULK DENSITY
 DPHI.DEC    45 890 12 00:   DENSITY POROSITY SANDSTONE
 DT  .US/F   60 520 00 00:   INTERVAL TRANSIT TIME
~PARAMETER INFORMATION
#MNEM.UNIT          VALUE    DESCRIPTION
#----------   ------------   ------------------------------
 PD  .                 GL:   PERMANENT DATUM
 EPD .F              5359:   ELEVATION PERMANENT DATUM
 LMF .                 KB:   LOG MEASURED FROM
 DAPD.F                10:   FEET ABOVE PERMANENT DATUM
 DMF .                 KB:   DRILLING MEASURED FROM
 EKB .F              5369:   KELLING BUSHING
 EGL .F              5359:   GROUND LEVEL
 DATE.            3-24-81:   RUN DATE
 RUN .                  1:   RUN NUMBER
 DD  .F              5700:   DEPTH DRILLER
 DL  .F              5700:   DEPTH LOGGER
 BLI .F              5694:   BOTTOM LOG INTERVAL
 TLI .F               559:   TOP LOG INTERVAL
 CS  .IN            9.625:   CASING SIZE
 CBD .F               554:   CASING BOTTOM DRILLER
 CBL .F               559:   CASING BOTTOM LOGGER
 BS  .IN             8.25:   BIT SIZE
 BSD .F              5700:   BIT SIZE AT DEPTH
 DFT .          DISPERSED:   DRILLING FLUID TYPE
 DFD .                9.7:   DRILLING FLUID DENSITY
 DFV .                 50:   DRILLING FLUID VISCOSITY
 DFPH.                8.5:   DRILLING FLUID PH
 DFL .                 10:   DRILLING FLUID LOSS
 MSS .            MUDTANK:   MUD SAMPLE SOURCE
 RMS .OHMM           2.34:   RESISTIVITY MUD SAMPLE
 MST .F                58:   MUD SAMPLE TEMPERATURE
 RMF .OHMM           1.67:   RESISTIVITY MUD FILTRATE SAMPLE
 MFST.F                65:   MUD FILTRATE SAMPLE TEMPERATURE
 MFSS.               MEAS:   MUD FILTRATE SAMPLE SOURCE
 RMB .OHMM            .98:   RESISTIVITY MUD AT BHT
 BHT .F               147:   BOTTOM HOLE TEMPERATURE
 TCS .HRS            2030:   TIME CURCULATED STOPPED
 TLAB.HRS            0100:   TIME LOGGER AT BOTTOM
 MRT .F               147:   MAXIMUM RECORDED TEMPERATURE
 LUN .               8035:   LOGGING UNIT NUMBER
 LUL .               CSPR:   LOGGING UNIT LOCATION
 ENGI.            BEATTIE:   RECORDING ENGINEER
 WITN.            TAUCHER:   WITNESSED BY
 CLNT.            A2DTECH:   CLIENT CODE
 ORIG.           5" PRINT:   ORIGIN OF DATA
 UWI .       490252131000:   UNIQUE WELL ID
 DICO. A2D Technologies, Inc.:   DIGITIZING COMPANY
~OTHER INFORMATION
~A   DEPT      SPR         GRR       SFL        ILD        ILM       CALD       CORR       RHOB       DPHI         DT   
# ...
 1580.5000   -20.3812   112.5900     5.2075     5.9363     5.3494  -999.2500  -999.2500  -999.2500  -999.2500  -999.2500
 1581.0000   -20.4845   115.1189     5.2224     5.9486     5.3964  -999.2500  -999.2500  -999.2500  -999.2500  -999.2500
 1581.5000   -20.5785   115.7039     5.2374     5.9591     5.4677  -999.2500  -999.2500  -999.2500  -999.2500  -999.2500
 1582.0000   -20.7584   113.3166     5.2524     5.9699     5.4545  -999.2500  -999.2500  -999.2500  -999.2500  -999.2500
 1582.5000   -20.9560   110.7538     5.2739     5.9806     5.4077  -999.2500  -999.2500  -999.2500  -999.2500  -999.2500
 1583.0000   -21.1539   109.7413     5.2565     5.9914     5.3614  -999.2500  -999.2500  -999.2500  -999.2500  -999.2500
 1583.5000   -21.3517   110.8661     5.2264     6.0022     5.3230  -999.2500  -999.2500  -999.2500  -999.2500  -999.2500
 1584.0000   -21.5509   112.3582     5.1965     6.0130     5.3800  -999.2500  -999.2500  -999.2500  -999.2500  -999.2500
 1584.5000   -21.7446   110.6036     5.1772     6.0238     5.4299  -999.2500  -999.2500  -999.2500  -999.2500  -999.2500
 1585.0000   -21.5202   108.4149     5.3156     6.0346     5.4729  -999.2500  -999.2500  -999.2500  -999.2500  -999.2500
 1585.5000   -21.2380   106.2198     5.4125     6.0456     5.4729  -999.2500  -999.2500  -999.2500  -999.2500  -999.2500
 1586.0000   -20.9548   104.1746     5.3385     6.0565     5.4729  -999.2500  -999.2500  -999.2500  -999.2500  -999.2500
 1586.5000   -20.6720   103.3965     5.2739     6.0940     5.4771  -999.2500  -999.2500  -999.2500  -999.2500  -999.2500
 1587.0000   -20.3911   103.7213     5.4239     6.1422     5.5132  -999.2500  -999.2500  -999.2500  -999.2500  -999.2500
 1587.5000   -20.1573   107.1555     5.5925     6.1907     5.5494  -999.2500  -999.2500  -999.2500  -999.2500  -999.2500
 1588.0000   -20.0935   112.2386     5.7856     6.2396     5.5751  -999.2500  -999.2500  -999.2500  -999.2500  -999.2500
 1588.5000   -20.0256   116.3262     5.7362     6.2889     5.5515  -999.2500  -999.2500  -999.2500  -999.2500  -999.2500
 1589.0000   -19.9578   117.3903     5.6643     6.3386     5.5333  -999.2500  -999.2500  -999.2500  -999.2500  -999.2500
 1589.5000   -19.8904   115.4673     5.6270     6.3887     5.5238  -999.2500  -999.2500  -999.2500  -999.2500  -999.2500
 1590.0000   -19.8137   111.0008     5.6270     6.4617     5.7208  -999.2500  -999.2500  -999.2500  -999.2500  -999.2500
 1590.5000   -19.6190   106.2801     5.7739     6.5470     5.9115  -999.2500  -999.2500  -999.2500  -999.2500  -999.2500
 1591.0000   -19.7211   102.9431     5.9160     6.6336     6.0938  -999.2500  -999.2500  -999.2500  -999.2500  -999.2500
 1591.5000   -19.9559   101.8448     6.0616     6.6554     6.2833  -999.2500  -999.2500  -999.2500  -999.2500  -999.2500
 1592.0000   -20.1891   102.6869     6.1158     6.6649     6.2653  -999.2500  -999.2500  -999.2500  -999.2500  -999.2500
 1592.5000   -20.4257   105.5945     6.0681     6.6744     6.2294  -999.2500  -999.2500  -999.2500  -999.2500  -999.2500
 1593.0000   -20.6513   110.8294     6.0295     6.6839     6.1938  -999.2500  -999.2500  -999.2500  -999.2500  -999.2500
 1593.5000   -20.8810   116.0247     5.9912     6.6935     6.1583  -999.2500  -999.2500  -999.2500  -999.2500  -999.2500
 1594.0000   -21.1110   117.7615     5.9531     6.7031     6.1231  -999.2500  -999.2500  -999.2500  -999.2500  -999.2500
 1594.5000   -21.3408   115.2954     5.9153     6.7161     6.0880  -999.2500  -999.2500  -999.2500  -999.2500  -999.2500
 1595.0000   -21.5707   112.7134     5.8777     6.7342     6.0595  -999.2500  -999.2500  -999.2500  -999.2500  -999.2500
 1595.5000   -21.8007   111.7502     5.8392     6.7526     6.1326  -999.2500  -999.2500  -999.2500  -999.2500  -999.2500
 1596.0000   -22.0290   112.2536     5.9551     6.7716     6.2082  -999.2500  -999.2500  -999.2500  -999.2500  -999.2500
 1596.5000   -22.2587   116.3047     6.1089     6.9112     6.2881  -999.2500  -999.2500  -999.2500  -999.2500  -999.2500
 1597.0000   -22.2225   120.2342     6.2668     7.0591     6.4393  -999.2500  -999.2500  -999.2500  -999.2500  -999.2500
 1597.5000   -21.9648   122.0273     6.4287     7.1778     6.6015  -999.2500  -999.2500  -999.2500  -999.2500  -999.2500
 1598.0000   -21.7064   116.9872     6.5947     7.3186     6.7677  -999.2500  -999.2500  -999.2500  -999.2500  -999.2500
 1598.5000   -21.4462   110.0967     6.7400     7.4621     6.9381  -999.2500  -999.2500  -999.2500  -999.2500  -999.2500
 1599.0000   -21.1862   106.2688     6.8359     7.6084     7.0922  -999.2500  -999.2500  -999.2500  -999.2500  -999.2500
 1599.5000   -20.9263   105.2724     6.9332     7.7577     7.1295  -999.2500  -999.2500  -999.2500  -999.2500  -999.2500
 1600.0000   -20.6655   103.4410     7.0153     7.9254     7.1705  -999.2500  -999.2500  -999.2500  -999.2500  -999.2500
 1600.5000   -20.4074   101.1821     7.0913     7.9384     7.2117  -999.2500  -999.2500  -999.2500  -999.2500  -999.2500
 1601.0000   -20.4025   100.7313     7.1682     7.9570     7.2529  -999.2500  -999.2500  -999.2500  -999.2500  -999.2500
 1601.5000   -20.4387   103.7454     7.2247     7.9758     7.2913  -999.2500  -999.2500  -999.2500  -999.2500  -999.2500
 1602.0000   -20.4753   106.0304     7.1201     7.9945     7.2262  -999.2500  -999.2500  -999.2500  -999.2500  -999.2500
 1602.5000   -20.5115   107.3045     7.0268     8.0133     7.1588  -999.2500  -999.2500  -999.2500  -999.2500  -999.2500
 1603.0000   -20.5495   106.3388     7.0965     8.0321     7.2317  -999.2500  -999.2500  -999.2500  -999.2500  -999.2500
 1603.5000   -20.6449   106.4536     7.2058     8.0511     7.3195  -999.2500  -999.2500  -999.2500  -999.2500  -999.2500
 1604.0000   -20.9643   106.7668     7.3167     8.0730     7.4082  -999.2500  -999.2500  -999.2500  -999.2500  -999.2500
 1604.5000   -21.2800   106.5224     7.3597     8.0590     7.4972  -999.2500  -999.2500  -999.2500  -999.2500  -999.2500
 1605.0000   -21.5956   105.4154     7.2779     8.0411     7.4281  -999.2500  -999.2500  -999.2500  -999.2500  -999.2500
 1605.5000   -21.9077   104.9905     7.1979     8.0232     7.3604  -999.2500  -999.2500  -999.2500  -999.2500  -999.2500
 1606.0000   -22.1759   104.9599     7.1187     8.0054     7.2932  -999.2500  -999.2500  -999.2500  -999.2500  -999.2500
 1606.5000   -22.1032   103.8801     7.0404     7.9877     7.2267  -999.2500  -999.2500  -999.2500  -999.2500  -999.2500
 1607.0000   -21.9901   102.1615     6.9630     7.9700     7.1575  -999.2500  -999.2500  -999.2500  -999.2500  -999.2500
 1607.5000   -21.8300   101.3051     6.8979     7.9523     7.0926  -999.2500  -999.2500  -999.2500  -999.2500  -999.2500
 1608.0000   -21.4189   104.7931     6.9649     7.9347     7.1293  -999.2500  -999.2500  -999.2500  -999.2500  -999.2500
 1608.5000   -21.0103   108.7356     7.0268     7.9172     7.1544  -999.2500  -999.2500  -999.2500  -999.2500  -999.2500
 1609.0000   -20.5939   111.1311     6.9842     7.8996     7.1170  -999.2500  -999.2500  -999.2500  -999.2500  -999.2500
 1609.5000   -20.5558   110.9045     6.9386     7.8820     7.0809  -999.2500  -999.2500  -999.2500  -999.2500  -999.2500
 1610.0000   -20.5346   110.1816     6.8934     7.8643     7.0268  -999.2500  -999.2500  -999.2500  -999.2500  -999.2500
 1610.5000   -20.5114   111.1827     6.8346     7.8519     7.0329  -999.2500  -999.2500  -999.2500  -999.2500  -999.2500
 1611.0000   -20.4873   114.2893     6.8545     7.7869     7.0454  -999.2500  -999.2500  -999.2500  -999.2500  -999.2500
 1611.5000   -20.4633   116.0161     6.8847     7.7279     7.0578  -999.2500  -999.2500  -999.2500  -999.2500  -999.2500
 1612.0000   -20.4391   117.0058     6.9148     7.6692     7.0705  -999.2500  -999.2500  -999.2500  -999.2500  -999.2500
 1612.5000   -20.4155   118.7821     6.9621     7.6108     7.0827  -999.2500  -999.2500  -999.2500  -999.2500  -999.2500
 1613.0000   -20.3924   120.9933     6.9074     7.5529     7.0922  -999.2500  -999.2500  -999.2500  -999.2500  -999.2500
 1613.5000   -20.4554   123.1783     6.7860     7.4955     6.9538  -999.2500  -999.2500  -999.2500  -999.2500  -999.2500
