~VERSION INFORMATION
 VERS.                2.0:   CWLS LOG ASCII STANDARD - VERSION 2.0
 WRAP.                 NO:   ONE LINE PER DEPTH STEP
~WELL INFORMATION
#MNEM.UNIT      DATA TYPE    INFORMATION
#----------   ------------   ------------------------------
 STRT.F          542.0000:   START DEPTH
 STOP.F         5696.0000:   STOP DEPTH
 STEP.F            0.5000:   STEP LENGTH
 NULL.          -999.2500:   NO VALUE
 COMP.       DAVIS OIL CO:   COMPANY
 WELL. WEST TEAPOT DOME STATE #1-16:   WELL
 FLD .             TEAPOT:   FIELD
 LOC .      S16 T38N R78W:   LOCATION
 CNTY.            NATRONA:   COUNTY
 STAT.            WYOMING:   STATE
 CTRY. UNITED STATES OF AMERICA:   COUNTRY
 SRVC.       Schlumberger:   SERVICE COMPANY
 DATE.        24-MAR-1981:   LOGDATE
 API .       490252131000:   API NUMBER
~CURVE INFORMATION
#MNEM.UNIT       API CODE    CURVE DESCRIPTION
#----------   ------------   ------------------------------
 DEPT.F                  :   
 SPR .MV     07 010 01 00:   SPONTANEOUS POTENTIAL
 GRR .GAPI   07 310 01 00:   GAMMA RAY FROM RES. LOG.
 SFL .OHMM   07 220 01 00:   SHALLOW FOCUSED LOG RESISTIVITY
 ILD .OHMM   07 120 46 00:   INDUCTION LOG DEEP
 ILM .OHMM   07 120 44 00:   INDUCTION LOG MEDIUM
 CALD.IN     45 280 60 00:   CALIPER
 CORR.G/C3   45 356 01 00:   DENSITY CORRECTION
 RHOB.G/C3   45 350 01 00:   BULK DENSITY
 DPHI.DEC    45 890 12 00:   DENSITY POROSITY SANDSTONE
 DT  .US/F   60 520 00 00:   INTERVAL TRANSIT TIME
~PARAMETER INFORMATION
#MNEM.UNIT          VALUE    DESCRIPTION
#----------   ------------   ------------------------------
 PD  .                 GL:   PERMANENT DATUM
 EPD .F              5359:   ELEVATION PERMANENT DATUM
 LMF .                 KB:   LOG MEASURED FROM
 DAPD.F                10:   FEET ABOVE PERMANENT DATUM
 DMF .                 KB:   DRILLING MEASURED FROM
 EKB .F              5369:   KELLING BUSHING
 EGL .F              5359:   GROUND LEVEL
 DATE.            3-24-81:   RUN DATE
 RUN .                  1:   RUN NUMBER
 DD  .F              5700:   DEPTH DRILLER
 DL  .F              5700:   DEPTH LOGGER
 BLI .F              5694:   BOTTOM LOG INTERVAL
 TLI .F               559:   TOP LOG INTERVAL
 CS  .IN            9.625:   CASING SIZE
 CBD .F               554:   CASING BOTTOM DRILLER
 CBL .F               559:   CASING BOTTOM LOGGER
 BS  .IN             8.25:   BIT SIZE
 BSD .F              5700:   BIT SIZE AT DEPTH
 DFT .          DISPERSED:   DRILLING FLUID TYPE
 DFD .                9.7:   DRILLING FLUID DENSITY
 DFV .                 50:   DRILLING FLUID VISCOSITY
 DFPH.                8.5:   DRILLING FLUID PH
 DFL .                 10:   DRILLING FLUID LOSS
 MSS .            MUDTANK:   MUD SAMPLE SOURCE
 RMS .OHMM           2.34:   RESISTIVITY MUD SAMPLE
 MST .F                58:   MUD SAMPLE TEMPERATURE
 RMF .OHMM           1.67:   RESISTIVITY MUD FILTRATE SAMPLE
 MFST.F                65:   MUD FILTRATE SAMPLE TEMPERATURE
 MFSS.               MEAS:   MUD FILTRATE SAMPLE SOURCE
 RMB .OHMM            .98:   RESISTIVITY MUD AT BHT
 BHT .F               147:   BOTTOM HOLE TEMPERATURE
 TCS .HRS            2030:   TIME CURCULATED STOPPED
 TLAB.HRS            0100:   TIME LOGGER AT BOTTOM
 MRT .F               147:   MAXIMUM RECORDED TEMPERATURE
 LUN .               8035:   LOGGING UNIT NUMBER
 LUL .               CSPR:   LOGGING UNIT LOCATION
 ENGI.            BEATTIE:   RECORDING ENGINEER
 WITN.            TAUCHER:   WITNESSED BY
 CLNT.            A2DTECH:   CLIENT CODE
 ORIG.           5" PRINT:   ORIGIN OF DATA
 UWI .       490252131000:   UNIQUE WELL ID
 DICO. A2D Technologies, Inc.:   DIGITIZING COMPANY
~OTHER INFORMATION
~A   DEPT      SPR         GRR       SFL        ILD        ILM       CALD       CORR       RHOB       DPHI         DT   
# ...
 4294.0000   -35.8228    77.2253    30.3343    35.2875    28.9228    10.7444     0.0386     2.4578     0.1324    70.0567
 4294.5000   -35.7403    79.3570    29.5183    33.9419    28.3227    10.7490     0.0329     2.4454     0.1391    70.2101
 4295.0000   -36.0761    76.7408    28.4311    32.6476    27.0514    10.7323     0.0273     2.4376     0.1448    70.3343
 4295.5000   -36.4059    71.6344    28.5714    31.4027    26.7256    10.7160     0.0265     2.4377     0.1440    70.4340
 4296.0000   -36.7340    70.7234    28.9312    30.7585    26.4018    10.6996     0.0297     2.4504     0.1395    70.3474
 4296.5000   -37.0628    73.7204    29.2351    30.3898    25.6582    10.6815     0.0407     2.4706     0.1235    70.7234
 4297.0000   -37.3253    77.1556    28.0231    30.0256    24.9208    10.6621     0.0465     2.4838     0.1152    70.9558
 4297.5000   -37.4738    79.7894    26.8298    29.6657    24.6344    10.6423     0.0432     2.4842     0.1177    71.0756
 4298.0000   -37.6199    80.6865    25.6870    29.1333    24.4360    10.6216     0.0401     2.4771     0.1219    71.0303
 4298.5000   -37.7661    81.7741    24.5173    28.8486    24.2392    10.5580     0.0425     2.4616     0.1300    70.9810
 4299.0000   -37.9140    84.1149    25.7051    28.5668    24.0294    10.5537     0.0443     2.4573     0.1322    71.1325
 4299.5000   -38.0642    86.5370    26.8951    28.4311    23.6261    10.5544     0.0412     2.4530     0.1353    71.2701
 4300.0000   -37.9617    85.2752    26.0377    28.6646    23.9506    10.5634     0.0342     2.4476     0.1396    71.1643
 4300.5000   -37.8377    82.5190    24.8716    28.8447    24.4172    10.5758     0.0248     2.4405     0.1439    71.0584
 4301.0000   -37.7155    80.6618    24.5173    29.0258    24.8928    10.5878     0.0180     2.4364     0.1452    70.8864
 4301.5000   -37.3861    79.7442    27.4072    29.2077    25.4421    10.6206     0.0238     2.4435     0.1420    70.5531
 4302.0000   -36.9600    78.3317    30.3835    29.3149    25.1727    10.6381     0.0328     2.4500     0.1376    70.2215
 4302.5000   -36.5339    75.2028    31.4786    29.4110    24.6025    10.6567     0.0327     2.4497     0.1390    70.4932
 4303.0000   -36.1091    73.5708    30.5881    29.5035    24.0453    10.6756     0.0284     2.4388     0.1440    70.9575
 4303.5000   -35.6682    75.3640    29.8953    29.6747    23.6261    10.6939     0.0260     2.4354     0.1460    71.4218
 4304.0000   -34.8053    80.0349    27.9812    29.8840    23.3759    10.7136     0.0307     2.4546     0.1326    71.4632
 4304.5000   -33.9897    89.6583    25.7116    30.3020    23.1872    10.7477     0.0407     2.4758     0.1204    70.9946
 4305.0000   -33.5575    93.2956    23.4052    31.5177    24.2787    10.7340     0.0413     2.4717     0.1254    69.6158
 4305.5000   -33.1180    93.4920    24.3928    32.7828    25.7876    10.7201     0.0298     2.4474     0.1391    66.5966
 4306.0000   -33.2189    89.4662    27.1492    34.0959    28.2747    10.7057     0.0146     2.4281     0.1512    64.1705
 4306.5000   -33.4184    83.9768    33.9949    35.5039    31.2403    10.6965     0.0014     2.4389     0.1393    62.7915
 4307.0000   -33.8155    80.4085    42.7717    36.0056    33.2750    10.7153     0.0059     2.4804     0.1169    63.3053
 4307.5000   -34.1973    83.4602    48.6362    36.5304    33.2729    10.7226     0.0142     2.5152     0.0980    65.3295
 4308.0000   -34.5852    87.8745    48.6362    37.0628    31.9468    10.7289     0.0226     2.4999     0.1094    67.4024
 4308.5000   -34.9221    88.3692    37.3583    37.5316    30.2509    10.7351     0.0300     2.4740     0.1270    69.4795
 4309.0000   -35.2490    85.8904    30.6975    35.9215    28.6450    10.7414     0.0330     2.4548     0.1331    70.9690
 4309.5000   -35.4936    83.0059    27.3660    33.8198    27.1243    10.7477     0.0364     2.4491     0.1384    71.1346
 4310.0000   -35.4869    80.8675    26.6473    31.8410    25.7978    10.7517     0.0397     2.4443     0.1410    70.6907
 4310.5000   -35.4857    80.6723    27.2663    29.9781    24.6424    10.7516     0.0439     2.4313     0.1500    70.3811
 4311.0000   -35.3717    80.7249    27.7511    29.5035    23.5388    10.7527     0.0631     2.4266     0.1520    70.9572
 4311.5000   -35.1100    83.3169    27.9096    28.2524    22.3911    10.7593     0.0981     2.4292     0.1498    71.5332
 4312.0000   -34.8514    89.9559    25.1439    26.8547    21.0641    10.7657     0.1004     2.4281     0.1510    72.1093
 4312.5000   -34.6926    97.8743    23.1645    25.2150    20.3737    10.7737     0.0651     2.4174     0.1589    72.5826
 4313.0000   -34.6931   102.1388    21.3409    24.8626    20.0093    10.7891     0.0477     2.4138     0.1599    72.3201
 4313.5000   -34.7334   101.6967    20.3737    24.6108    19.8157    10.7539     0.0308     2.4240     0.1529    72.0868
 4314.0000   -34.9805    94.0865    21.1618    24.3614    20.5138    10.7111     0.0262     2.4368     0.1453    72.1234
 4314.5000   -35.2295    86.5145    22.1540    24.1146    21.2148    10.6358     0.0286     2.4464     0.1399    72.1601
 4315.0000   -35.3737    85.9917    23.1927    24.0676    21.9397    10.5962     0.0369     2.4560     0.1355    72.0976
 4315.5000   -35.4893    87.3569    23.8458    24.6745    21.9397    10.5563     0.0450     2.4657     0.1284    71.8251
 4316.0000   -35.6093    88.2042    23.6122    25.4668    21.9397    10.5544     0.0467     2.4708     0.1250    71.5272
 4316.5000   -35.8443    83.0185    23.1927    26.2831    22.1826    10.5546     0.0409     2.4658     0.1277    71.0288
 4317.0000   -36.4303    77.3665    23.5824    26.7090    22.8457    10.5547     0.0384     2.4537     0.1344    70.4450
 4317.5000   -36.9975    75.9008    24.6881    27.0942    23.5287    10.5547     0.0388     2.4516     0.1372    70.1802
 4318.0000   -37.5628    77.7337    25.8456    27.4850    23.8458    10.5546     0.0441     2.4515     0.1378    70.4385
 4318.5000   -37.9749    78.6817    27.1452    27.9096    23.8458    10.5617     0.0377     2.4400     0.1426    70.6754
 4319.0000   -38.2034    75.2964    27.1452    27.7823    23.8458    10.5717     0.0292     2.4266     0.1509    70.9123
 4319.5000   -38.4349    71.3891    27.1452    27.6099    23.8471    10.5819     0.0269     2.4214     0.1543    71.1492
 4320.0000   -38.4069    70.8499    27.1452    27.4375    23.8471    10.5920     0.0382     2.4293     0.1481    71.0533
 4320.5000   -38.3311    76.9467    25.8715    27.2656    23.6729    10.6021     0.0450     2.4426     0.1415    70.7769
 4321.0000   -38.1795    82.0890    24.5248    27.1452    23.5183    10.6120     0.0386     2.4423     0.1429    70.5834
 4321.5000   -37.6995    83.4534    23.8458    27.3758    23.4059    10.6207     0.0280     2.4372     0.1448    70.4341
 4322.0000   -37.2216    81.2777    24.0156    27.7200    24.0937    10.6287     0.0224     2.4362     0.1464    70.1258
 4322.5000   -36.7447    79.8186    24.3853    28.0441    24.9118    10.6334     0.0193     2.4451     0.1394    69.0274
 4323.0000   -36.2675    79.7112    25.4044    28.3426    25.9681    10.6335     0.0240     2.4648     0.1286    66.2291
 4323.5000   -35.7901    79.5515    28.5630    28.6960    27.1829    10.6335     0.0305     2.5019     0.1099    63.9656
 4324.0000   -35.3131    78.7962    33.2763    28.5183    27.3977    10.6335     0.0386     2.5592     0.0781    63.6882
 4324.5000   -34.8708    76.3863    41.1256    28.2353    26.3441    10.6335     0.0372     2.5373     0.0865    65.8683
 4325.0000   -34.6812    77.0047    38.7076    27.9568    24.7198    10.6336     0.0311     2.5034     0.1030    68.6662
 4325.5000   -34.4951    80.1089    31.4780    27.6835    23.1957    10.6299     0.0275     2.4718     0.1244    70.8905
 4326.0000   -34.3068    83.1115    24.6352    27.4070    21.7376    10.6255     0.0310     2.4555     0.1340    71.0928
 4326.5000   -34.1213    85.1265    20.9474    26.5452    21.0515    10.6210     0.0297     2.4546     0.1348    70.8551
 4327.0000   -34.3069    83.8779    21.4418    25.4763    20.7544    10.6165     0.0234     2.4518     0.1352    71.0420
