~VERSION INFORMATION
 VERS.                2.0:   CWLS LOG ASCII STANDARD - VERSION 2.0
 WRAP.                 NO:   ONE LINE PER DEPTH STEP
~WELL INFORMATION
#MNEM.UNIT      DATA TYPE    INFORMATION
#----------   ------------   ------------------------------
 STRT.F          542.0000:   START DEPTH
 STOP.F         5696.0000:   STOP DEPTH
 STEP.F            0.5000:   STEP LENGTH
 NULL.          -999.2500:   NO VALUE
 COMP.       DAVIS OIL CO:   COMPANY
 WELL. WEST TEAPOT DOME STATE #1-16:   WELL
 FLD .             TEAPOT:   FIELD
 LOC .      S16 T38N R78W:   LOCATION
 CNTY.            NATRONA:   COUNTY
 STAT.            WYOMING:   STATE
 CTRY. UNITED STATES OF AMERICA:   COUNTRY
 SRVC.       Schlumberger:   SERVICE COMPANY
 DATE.        24-MAR-1981:   LOGDATE
 API .       490252131000:   API NUMBER
~CURVE INFORMATION
#MNEM.UNIT       API CODE    CURVE DESCRIPTION
#----------   ------------   ------------------------------
 DEPT.F                  :   
 SPR .MV     07 010 01 00:   SPONTANEOUS POTENTIAL
 GRR .GAPI   07 310 01 00:   GAMMA RAY FROM RES. LOG.
 SFL .OHMM   07 220 01 00:   SHALLOW FOCUSED LOG RESISTIVITY
 ILD .OHMM   07 120 46 00:   INDUCTION LOG DEEP
 ILM .OHMM   07 120 44 00:   INDUCTION LOG MEDIUM
 CALD.IN     45 280 60 00:   CALIPER
 CORR.G/C3   45 356 01 00:   DENSITY CORRECTION
 RHOB.G/C3   45 350 01 00:   BULK DENSITY
 DPHI.DEC    45 890 12 00:   DENSITY POROSITY SANDSTONE
 DT  .US/F   60 520 00 00:   INTERVAL TRANSIT TIME
~PARAMETER INFORMATION
#MNEM.UNIT          VALUE    DESCRIPTION
#----------   ------------   ------------------------------
 PD  .                 GL:   PERMANENT DATUM
 EPD .F              5359:   ELEVATION PERMANENT DATUM
 LMF .                 KB:   LOG MEASURED FROM
 DAPD.F                10:   FEET ABOVE PERMANENT DATUM
 DMF .                 KB:   DRILLING MEASURED FROM
 EKB .F              5369:   KELLING BUSHING
 EGL .F              5359:   GROUND LEVEL
 DATE.            3-24-81:   RUN DATE
 RUN .                  1:   RUN NUMBER
 DD  .F              5700:   DEPTH DRILLER
 DL  .F              5700:   DEPTH LOGGER
 BLI .F              5694:   BOTTOM LOG INTERVAL
 TLI .F               559:   TOP LOG INTERVAL
 CS  .IN            9.625:   CASING SIZE
 CBD .F               554:   CASING BOTTOM DRILLER
 CBL .F               559:   CASING BOTTOM LOGGER
 BS  .IN             8.25:   BIT SIZE
 BSD .F              5700:   BIT SIZE AT DEPTH
 DFT .          DISPERSED:   DRILLING FLUID TYPE
 DFD .                9.7:   DRILLING FLUID DENSITY
 DFV .                 50:   DRILLING FLUID VISCOSITY
 DFPH.                8.5:   DRILLING FLUID PH
 DFL .                 10:   DRILLING FLUID LOSS
 MSS .            MUDTANK:   MUD SAMPLE SOURCE
 RMS .OHMM           2.34:   RESISTIVITY MUD SAMPLE
 MST .F                58:   MUD SAMPLE TEMPERATURE
 RMF .OHMM           1.67:   RESISTIVITY MUD FILTRATE SAMPLE
 MFST.F                65:   MUD FILTRATE SAMPLE TEMPERATURE
 MFSS.               MEAS:   MUD FILTRATE SAMPLE SOURCE
 RMB .OHMM            .98:   RESISTIVITY MUD AT BHT
 BHT .F               147:   BOTTOM HOLE TEMPERATURE
 TCS .HRS            2030:   TIME CURCULATED STOPPED
 TLAB.HRS            0100:   TIME LOGGER AT BOTTOM
 MRT .F               147:   MAXIMUM RECORDED TEMPERATURE
 LUN .               8035:   LOGGING UNIT NUMBER
 LUL .               CSPR:   LOGGING UNIT LOCATION
 ENGI.            BEATTIE:   RECORDING ENGINEER
 WITN.            TAUCHER:   WITNESSED BY
 CLNT.            A2DTECH:   CLIENT CODE
 ORIG.           5" PRINT:   ORIGIN OF DATA
 UWI .       490252131000:   UNIQUE WELL ID
 DICO. A2D Technologies, Inc.:   DIGITIZING COMPANY
~OTHER INFORMATION
~A   DEPT      SPR         GRR       SFL        ILD        ILM       CALD       CORR       RHOB       DPHI         DT   
# ...
 3624.0000   -22.5590   151.2380    10.6294     8.9683     8.6030    10.2022     0.0196     2.5263     0.0924  -999.2500
 3624.5000   -22.2165   147.9678    10.5754     8.9784     8.6189    10.2014     0.0176     2.5327     0.0876  -999.2500
 3625.0000   -21.8634   144.5712    10.5216     8.9884     8.6351    10.1738     0.0143     2.5317     0.0876  -999.2500
 3625.5000   -21.7255   146.1863    10.4622     8.9985     8.6513    10.1412     0.0089     2.5236     0.0931  -999.2500
 3626.0000   -21.6570   149.2057    10.4877     9.0086     8.6675    10.1086     0.0061     2.5121     0.0984  -999.2500
 3626.5000   -21.5893   149.0999    10.5248     9.0190     8.6838    10.0810     0.0075     2.5066     0.1038  -999.2500
 3627.0000   -21.5715   147.0726    10.5620     9.0219     8.7001    10.0758     0.0057     2.5040     0.1048  -999.2500
 3627.5000   -21.5699   146.8192    10.5994     9.0220     8.7164    10.0695     0.0070     2.5069     0.1021  -999.2500
 3628.0000   -21.5593   148.2876    10.6369     9.0220     8.7327    10.0631     0.0102     2.5165     0.0984  -999.2500
 3628.5000   -21.8722   145.1856    10.7933     9.0220     8.7491    10.0567     0.0262     2.5320     0.0888  -999.2500
 3629.0000   -22.2227   141.5093    11.1026     9.0220     8.7748    10.0504     0.0327     2.5413     0.0831  -999.2500
 3629.5000   -22.5570   139.3585    11.4208     9.0221     8.7556    10.0437     0.0303     2.5474     0.0800  -999.2500
 3630.0000   -22.5666   137.5857    11.4769     9.0228     8.7110    10.0504     0.0269     2.5410     0.0847  -999.2500
 3630.5000   -22.5647   135.8198    10.9186     9.0125     8.6667    10.0606     0.0153     2.5319     0.0892  -999.2500
 3631.0000   -22.5649   134.1419    10.4820     8.9642     8.6226    10.0508     0.0139     2.5263     0.0916  -999.2500
 3631.5000   -22.5892   135.8123     9.8970     8.9168     8.5787    10.0362     0.0198     2.5330     0.0878  -999.2500
 3632.0000   -22.7223   140.2638    10.0424     8.8697     8.5345    10.0214     0.0270     2.5384     0.0853  -999.2500
 3632.5000   -22.8532   145.4615    10.4241     8.8231     8.5603    10.0064     0.0228     2.5373     0.0883  -999.2500
 3633.0000   -22.9666   147.6296    10.8203     8.7752     8.5931    10.0033     0.0147     2.5220     0.0943  -999.2500
 3633.5000   -22.9623   147.2190    11.1703     8.8490     8.6260    10.0032     0.0090     2.5071     0.1016  -999.2500
 3634.0000   -22.9222   146.9272    11.2170     8.9256     8.6591    10.0033     0.0048     2.5007     0.1065  -999.2500
 3634.5000   -22.6625   145.3621    11.2664     9.0226     8.7749    10.0033     0.0043     2.4976     0.1092  -999.2500
 3635.0000   -22.4023   141.4635    11.1385     9.0093     8.7228    10.0033     0.0039     2.5022     0.1062  -999.2500
 3635.5000   -22.1436   136.9883    10.9693     8.9198     8.6286    10.0033     0.0063     2.5111     0.1000  -999.2500
 3636.0000   -21.9462   135.5064    10.7488     8.8312     8.5342    10.0034     0.0123     2.5199     0.0959  -999.2500
 3636.5000   -21.8838   140.4084    10.4248     8.7435     8.4411    10.0062     0.0231     2.5215     0.0941  -999.2500
 3637.0000   -21.8202   145.5004    10.1106     8.6567     8.3776    10.0187     0.0261     2.5202     0.0947  -999.2500
 3637.5000   -21.7565   147.1247     9.7154     8.5788     8.3456     9.9853     0.0266     2.5213     0.0931  -999.2500
 3638.0000   -21.6923   146.0362     9.8181     8.5096     8.3100     9.9524     0.0252     2.5232     0.0928  -999.2500
 3638.5000   -21.6265   145.2119    10.0283     8.4409     8.2746     9.9234     0.0177     2.5144     0.0982  -999.2500
 3639.0000   -21.5839   145.8277    10.2431     8.3780     8.2394     9.9164     0.0096     2.5037     0.1045  -999.2500
 3639.5000   -21.8991   147.0779    10.2703     8.3780     8.2042     9.9094     0.0014     2.4965     0.1108  -999.2500
 3640.0000   -22.2110   148.0378    10.2703     8.3780     8.1693     9.9036     0.0014     2.5027     0.1077  -999.2500
 3640.5000   -22.5171   147.7713    10.2703     8.3780     8.1345     9.8999     0.0058     2.5137     0.0998  -999.2500
 3641.0000   -22.6271   147.4125    10.1638     8.3779     8.0998     9.8963     0.0057     2.5236     0.0932  -999.2500
 3641.5000   -22.7002   146.3384     9.7420     8.3773     8.0735     9.8926     0.0030     2.5232     0.0941  -999.2500
 3642.0000   -22.7732   143.7371     9.1905     8.3862     8.1343     9.8890     0.0014     2.5222     0.0948  -999.2500
 3642.5000   -22.8456   138.9146     9.3709     8.4253     8.1935     9.8853     0.0132     2.5315     0.0901  -999.2500
 3643.0000   -22.9172   138.1855     9.8112     8.4640     8.2531     9.8881     0.0243     2.5361     0.0860  -999.2500
 3643.5000   -22.8908   140.9384    10.2722     8.5029     8.3165     9.8914     0.0280     2.5278     0.0877  -999.2500
 3644.0000   -22.7127   141.0476    10.5595     8.5642     8.3932     9.8947     0.0197     2.5148     0.0979  -999.2500
 3644.5000   -22.5363   135.9052    10.4993     8.7168     8.4706     9.8980     0.0064     2.4945     0.1086  -999.2500
 3645.0000   -22.3593   130.8492    10.4625     8.8723     8.5356     9.9012     0.0037     2.4879     0.1144  -999.2500
 3645.5000   -22.1822   129.7588    10.5489     8.9388     8.5014     9.9050     0.0021     2.4927     0.1134  -999.2500
 3646.0000   -22.0052   136.1543    10.6581     8.7547     8.4578     9.9300     0.0034     2.4993     0.1091  -999.2500
 3646.5000   -21.8281   142.9959    10.5993     8.5691     8.4145     9.9575     0.0056     2.5051     0.1038  -999.2500
 3647.0000   -21.6506   145.4167    10.4383     8.3875     8.3716     9.9851     0.0046     2.5108     0.1008  -999.2500
 3647.5000   -21.5030   140.4226    10.0739     8.2097     8.3290    10.0129     0.0045     2.5093     0.1026  -999.2500
 3648.0000   -21.3796   132.4670     9.5589     8.0358     8.2866    10.0415     0.0055     2.5059     0.1046  -999.2500
 3648.5000   -21.2571   130.0153     9.0703     7.8521     8.2445    10.0480     0.0060     2.5029     0.1068  -999.2500
 3649.0000   -21.1986   138.5276     8.9388     7.8524     8.2243    10.0534     0.0065     2.5016     0.1075  -999.2500
 3649.5000   -21.4257   146.1569     9.5051     8.0788     8.2426    10.0590     0.0052     2.5004     0.1082  -999.2500
 3650.0000   -21.6535   152.4618    10.0425     8.2549     8.2590    10.0646     0.0023     2.4940     0.1121  -999.2500
 3650.5000   -21.8805   157.3367    10.5595     8.5345     8.2754    10.0702     0.0035     2.4879     0.1152  -999.2500
 3651.0000   -22.1083   158.3341    10.4465     8.5007     8.2919    10.0759     0.0090     2.4937     0.1110  -999.2500
 3651.5000   -22.3346   159.4024    10.3201     8.4305     8.3084    10.0813     0.0145     2.5002     0.1074  -999.2500
 3652.0000   -22.3660   159.1647    10.1757     8.3780     8.3249    10.0657     0.0202     2.5030     0.1053  -999.2500
 3652.5000   -22.3664   157.3870    10.2021     8.5509     8.3414    10.0472     0.0225     2.5046     0.1044  -999.2500
 3653.0000   -22.3658   156.4464    10.2630     8.7198     8.3581    10.0289     0.0237     2.5050     0.1050  -999.2500
 3653.5000   -22.3648   156.4464    10.3243     8.8565     8.3750     9.9833     0.0217     2.5029     0.1072  -999.2500
 3654.0000   -22.2714   158.6535    10.3859     8.6783     8.3911     9.9265     0.0175     2.4945     0.1116  -999.2500
 3654.5000   -22.0359   159.9050    10.4479     8.5345     8.4121     9.8846     0.0091     2.4820     0.1174  -999.2500
 3655.0000   -21.8017   159.4442    10.5760     8.6646     8.4333     9.8874     0.0052     2.4764     0.1214  -999.2500
 3655.5000   -21.5694   159.3257    10.7256     8.8983     8.4559     9.8892     0.0032     2.4743     0.1236  -999.2500
 3656.0000   -21.3643   160.7761    10.8568     9.1059     8.5845     9.8910     0.0068     2.4775     0.1224  -999.2500
 3656.5000   -21.3106   163.1018    10.9947     9.1059     8.7228     9.8928     0.0130     2.4841     0.1169  -999.2500
 3657.0000   -21.1991   165.4390    11.1602     9.1059     8.8632     9.8946     0.0158     2.4910     0.1117  -999.2500
