~VERSION INFORMATION
 VERS.                2.0:   CWLS LOG ASCII STANDARD - VERSION 2.0
 WRAP.                 NO:   ONE LINE PER DEPTH STEP
~WELL INFORMATION
#MNEM.UNIT      DATA TYPE    INFORMATION
#----------   ------------   ------------------------------
 STRT.F          542.0000:   START DEPTH
 STOP.F         5696.0000:   STOP DEPTH
 STEP.F            0.5000:   STEP LENGTH
 NULL.          -999.2500:   NO VALUE
 COMP.       DAVIS OIL CO:   COMPANY
 WELL. WEST TEAPOT DOME STATE #1-16:   WELL
 FLD .             TEAPOT:   FIELD
 LOC .      S16 T38N R78W:   LOCATION
 CNTY.            NATRONA:   COUNTY
 STAT.            WYOMING:   STATE
 CTRY. UNITED STATES OF AMERICA:   COUNTRY
 SRVC.       Schlumberger:   SERVICE COMPANY
 DATE.        24-MAR-1981:   LOGDATE
 API .       490252131000:   API NUMBER
~CURVE INFORMATION
#MNEM.UNIT       API CODE    CURVE DESCRIPTION
#----------   ------------   ------------------------------
 DEPT.F                  :   
 SPR .MV     07 010 01 00:   SPONTANEOUS POTENTIAL
 GRR .GAPI   07 310 01 00:   GAMMA RAY FROM RES. LOG.
 SFL .OHMM   07 220 01 00:   SHALLOW FOCUSED LOG RESISTIVITY
 ILD .OHMM   07 120 46 00:   INDUCTION LOG DEEP
 ILM .OHMM   07 120 44 00:   INDUCTION LOG MEDIUM
 CALD.IN     45 280 60 00:   CALIPER
 CORR.G/C3   45 356 01 00:   DENSITY CORRECTION
 RHOB.G/C3   45 350 01 00:   BULK DENSITY
 DPHI.DEC    45 890 12 00:   DENSITY POROSITY SANDSTONE
 DT  .US/F   60 520 00 00:   INTERVAL TRANSIT TIME
~PARAMETER INFORMATION
#MNEM.UNIT          VALUE    DESCRIPTION
#----------   ------------   ------------------------------
 PD  .                 GL:   PERMANENT DATUM
 EPD .F              5359:   ELEVATION PERMANENT DATUM
 LMF .                 KB:   LOG MEASURED FROM
 DAPD.F                10:   FEET ABOVE PERMANENT DATUM
 DMF .                 KB:   DRILLING MEASURED FROM
 EKB .F              5369:   KELLING BUSHING
 EGL .F              5359:   GROUND LEVEL
 DATE.            3-24-81:   RUN DATE
 RUN .                  1:   RUN NUMBER
 DD  .F              5700:   DEPTH DRILLER
 DL  .F              5700:   DEPTH LOGGER
 BLI .F              5694:   BOTTOM LOG INTERVAL
 TLI .F               559:   TOP LOG INTERVAL
 CS  .IN            9.625:   CASING SIZE
 CBD .F               554:   CASING BOTTOM DRILLER
 CBL .F               559:   CASING BOTTOM LOGGER
 BS  .IN             8.25:   BIT SIZE
 BSD .F              5700:   BIT SIZE AT DEPTH
 DFT .          DISPERSED:   DRILLING FLUID TYPE
 DFD .                9.7:   DRILLING FLUID DENSITY
 DFV .                 50:   DRILLING FLUID VISCOSITY
 DFPH.                8.5:   DRILLING FLUID PH
 DFL .                 10:   DRILLING FLUID LOSS
 MSS .            MUDTANK:   MUD SAMPLE SOURCE
 RMS .OHMM           2.34:   RESISTIVITY MUD SAMPLE
 MST .F                58:   MUD SAMPLE TEMPERATURE
 RMF .OHMM           1.67:   RESISTIVITY MUD FILTRATE SAMPLE
 MFST.F                65:   MUD FILTRATE SAMPLE TEMPERATURE
 MFSS.               MEAS:   MUD FILTRATE SAMPLE SOURCE
 RMB .OHMM            .98:   RESISTIVITY MUD AT BHT
 BHT .F               147:   BOTTOM HOLE TEMPERATURE
 TCS .HRS            2030:   TIME CURCULATED STOPPED
 TLAB.HRS            0100:   TIME LOGGER AT BOTTOM
 MRT .F               147:   MAXIMUM RECORDED TEMPERATURE
 LUN .               8035:   LOGGING UNIT NUMBER
 LUL .               CSPR:   LOGGING UNIT LOCATION
 ENGI.            BEATTIE:   RECORDING ENGINEER
 WITN.            TAUCHER:   WITNESSED BY
 CLNT.            A2DTECH:   CLIENT CODE
 ORIG.           5" PRINT:   ORIGIN OF DATA
 UWI .       490252131000:   UNIQUE WELL ID
 DICO. A2D Technologies, Inc.:   DIGITIZING COMPANY
~OTHER INFORMATION
~A   DEPT      SPR         GRR       SFL        ILD        ILM       CALD       CORR       RHOB       DPHI         DT   
# ...
 2284.0000   -20.3361   102.0035     6.8096     7.2899     6.5399  -999.2500  -999.2500  -999.2500  -999.2500  -999.2500
 2284.5000   -20.2456   103.3632     6.8979     7.3609     6.6434  -999.2500  -999.2500  -999.2500  -999.2500  -999.2500
 2285.0000   -20.1550   103.7885     6.8589     7.4325     6.7477  -999.2500  -999.2500  -999.2500  -999.2500  -999.2500
 2285.5000   -20.0644   103.7587     6.8344     7.5049     6.8036  -999.2500  -999.2500  -999.2500  -999.2500  -999.2500
 2286.0000   -19.9739   102.2467     6.9812     7.5669     6.8602  -999.2500  -999.2500  -999.2500  -999.2500  -999.2500
 2286.5000   -19.8832   100.6024     7.1095     7.5361     6.8979  -999.2500  -999.2500  -999.2500  -999.2500  -999.2500
 2287.0000   -19.7927   100.2185     7.2247     7.4790     6.7569  -999.2500  -999.2500  -999.2500  -999.2500  -999.2500
 2287.5000   -19.7026   101.4043     7.0730     7.4224     6.6349  -999.2500  -999.2500  -999.2500  -999.2500  -999.2500
 2288.0000   -19.6092   103.7458     6.7838     7.3663     6.5151  -999.2500  -999.2500  -999.2500  -999.2500  -999.2500
 2288.5000   -19.6681   106.0799     6.5253     7.3106     6.4056  -999.2500  -999.2500  -999.2500  -999.2500  -999.2500
 2289.0000   -19.8450   107.6976     6.5501     7.2553     6.4182  -999.2500  -999.2500  -999.2500  -999.2500  -999.2500
 2289.5000   -20.0228   108.4562     6.6046     7.2104     6.4328  -999.2500  -999.2500  -999.2500  -999.2500  -999.2500
 2290.0000   -20.2019   107.5967     6.6472     7.1509     6.4475  -999.2500  -999.2500  -999.2500  -999.2500  -999.2500
 2290.5000   -20.3723   106.0639     6.6240     7.0922     6.4622  -999.2500  -999.2500  -999.2500  -999.2500  -999.2500
 2291.0000   -20.3452   105.7804     6.5859     7.1646     6.5223  -999.2500  -999.2500  -999.2500  -999.2500  -999.2500
 2291.5000   -20.3104   105.8399     6.6505     7.2375     6.5944  -999.2500  -999.2500  -999.2500  -999.2500  -999.2500
 2292.0000   -20.2764   106.4328     6.7630     7.3111     6.6673  -999.2500  -999.2500  -999.2500  -999.2500  -999.2500
 2292.5000   -20.2427   107.9835     6.8775     7.4323     6.7410  -999.2500  -999.2500  -999.2500  -999.2500  -999.2500
 2293.0000   -20.2089   109.3454     6.9938     7.4618     6.8155  -999.2500  -999.2500  -999.2500  -999.2500  -999.2500
 2293.5000   -20.1767   107.9121     7.0412     7.4914     6.8979  -999.2500  -999.2500  -999.2500  -999.2500  -999.2500
 2294.0000   -20.1553   105.1268     7.0613     7.5211     6.9147  -999.2500  -999.2500  -999.2500  -999.2500  -999.2500
 2294.5000   -20.1341   102.6360     7.0815     7.5510     6.9332  -999.2500  -999.2500  -999.2500  -999.2500  -999.2500
 2295.0000   -20.1128   105.5614     7.1174     7.6009     6.9518  -999.2500  -999.2500  -999.2500  -999.2500  -999.2500
 2295.5000   -20.0915   108.9700     7.1716     7.6741     6.9733  -999.2500  -999.2500  -999.2500  -999.2500  -999.2500
 2296.0000   -20.0703   110.5849     7.2247     7.7481     7.0188  -999.2500  -999.2500  -999.2500  -999.2500  -999.2500
 2296.5000   -20.0490   109.7068     7.2508     7.8227     7.0922  -999.2500  -999.2500  -999.2500  -999.2500  -999.2500
 2297.0000   -20.0278   107.6290     7.2762     7.8524     7.0722  -999.2500  -999.2500  -999.2500  -999.2500  -999.2500
 2297.5000   -20.0064   105.4831     7.2919     7.6674     7.0228  -999.2500  -999.2500  -999.2500  -999.2500  -999.2500
 2298.0000   -19.9828   104.5337     7.1304     7.5165     6.9738  -999.2500  -999.2500  -999.2500  -999.2500  -999.2500
 2298.5000   -20.0497   106.5520     6.9697     7.3686     6.7641  -999.2500  -999.2500  -999.2500  -999.2500  -999.2500
 2299.0000   -20.1399   109.0987     6.7767     7.2235     6.5122  -999.2500  -999.2500  -999.2500  -999.2500  -999.2500
 2299.5000   -20.2310   111.6740     6.5594     7.0814     6.2697  -999.2500  -999.2500  -999.2500  -999.2500  -999.2500
 2300.0000   -20.3220   112.7908     6.3489     6.9422     6.0595  -999.2500  -999.2500  -999.2500  -999.2500  -999.2500
 2300.5000   -20.4130   111.4625     6.1448     6.8053     5.9865  -999.2500  -999.2500  -999.2500  -999.2500  -999.2500
 2301.0000   -20.5039   110.1210     6.0026     6.6648     5.9064  -999.2500  -999.2500  -999.2500  -999.2500  -999.2500
 2301.5000   -20.5948   108.7568     6.0568     6.5108     5.8273  -999.2500  -999.2500  -999.2500  -999.2500  -999.2500
 2302.0000   -20.6858   107.1386     6.1158     6.3604     5.7577  -999.2500  -999.2500  -999.2500  -999.2500  -999.2500
 2302.5000   -20.7767   106.7794     6.0441     6.2134     5.6531  -999.2500  -999.2500  -999.2500  -999.2500  -999.2500
 2303.0000   -20.8677   113.6635     5.9616     6.0698     5.5751  -999.2500  -999.2500  -999.2500  -999.2500  -999.2500
 2303.5000   -20.9606   119.8486     5.7042     5.9296     5.3580  -999.2500  -999.2500  -999.2500  -999.2500  -999.2500
 2304.0000   -20.8671   121.5191     5.4261     5.7926     5.1573  -999.2500  -999.2500  -999.2500  -999.2500  -999.2500
 2304.5000   -20.6985   116.7597     5.1615     5.6587     4.9641  -999.2500  -999.2500  -999.2500  -999.2500  -999.2500
 2305.0000   -20.5287   113.4268     4.9099     5.5279     4.8225  -999.2500  -999.2500  -999.2500  -999.2500  -999.2500
 2305.5000   -20.3589   114.3197     4.6860     5.4002     4.7494  -999.2500  -999.2500  -999.2500  -999.2500  -999.2500
 2306.0000   -20.1891   115.3547     4.7090     5.2464     4.6753  -999.2500  -999.2500  -999.2500  -999.2500  -999.2500
 2306.5000   -20.0180   113.4111     4.7961     5.0522     4.6754  -999.2500  -999.2500  -999.2500  -999.2500  -999.2500
 2307.0000   -19.9317   110.6173     4.8848     4.8651     4.6754  -999.2500  -999.2500  -999.2500  -999.2500  -999.2500
 2307.5000   -19.8677   109.1790     4.9752     4.6329     4.5895  -999.2500  -999.2500  -999.2500  -999.2500  -999.2500
 2308.0000   -19.8043   108.7920     5.0354     4.6968     4.4767  -999.2500  -999.2500  -999.2500  -999.2500  -999.2500
 2308.5000   -19.7407   104.6935     4.9496     4.7837     4.3667  -999.2500  -999.2500  -999.2500  -999.2500  -999.2500
 2309.0000   -19.6772    99.4556     4.7010     4.8077     4.2596  -999.2500  -999.2500  -999.2500  -999.2500  -999.2500
 2309.5000   -19.6150    94.0222     4.4648     4.7059     4.1458  -999.2500  -999.2500  -999.2500  -999.2500  -999.2500
 2310.0000   -19.6154    93.7383     4.2404     4.5902     4.1354  -999.2500  -999.2500  -999.2500  -999.2500  -999.2500
 2310.5000   -19.7391   103.9172     4.0274     4.5957     4.1011  -999.2500  -999.2500  -999.2500  -999.2500  -999.2500
 2311.0000   -19.8590   108.6432     3.9219     4.6068     4.0698  -999.2500  -999.2500  -999.2500  -999.2500  -999.2500
 2311.5000   -19.9789   111.3695     4.0705     4.6179     4.1678  -999.2500  -999.2500  -999.2500  -999.2500  -999.2500
 2312.0000   -20.0989   110.9982     4.3006     4.6290     4.2820  -999.2500  -999.2500  -999.2500  -999.2500  -999.2500
 2312.5000   -20.2189   111.1005     4.5437     4.6847     4.3993  -999.2500  -999.2500  -999.2500  -999.2500  -999.2500
 2313.0000   -20.3396   111.3592     4.8005     4.7649     4.5198  -999.2500  -999.2500  -999.2500  -999.2500  -999.2500
 2313.5000   -20.4589   110.2603     5.0354     4.8466     4.6028  -999.2500  -999.2500  -999.2500  -999.2500  -999.2500
 2314.0000   -20.5636   107.9077     5.0813     4.9295     4.6328  -999.2500  -999.2500  -999.2500  -999.2500  -999.2500
 2314.5000   -20.9114   104.9457     5.1263     5.0139     4.6936  -999.2500  -999.2500  -999.2500  -999.2500  -999.2500
 2315.0000   -20.7840   101.9592     5.1717     5.0881     4.7537  -999.2500  -999.2500  -999.2500  -999.2500  -999.2500
 2315.5000   -20.5568   101.5235     5.2177     5.1296     4.8145  -999.2500  -999.2500  -999.2500  -999.2500  -999.2500
 2316.0000   -20.3251   102.1650     5.2743     5.1197     4.8504  -999.2500  -999.2500  -999.2500  -999.2500  -999.2500
 2316.5000   -20.1485   102.3595     5.2673     5.1029     4.8306  -999.2500  -999.2500  -999.2500  -999.2500  -999.2500
 2317.0000   -20.0723   100.9790     5.2269     5.0863     4.8147  -999.2500  -999.2500  -999.2500  -999.2500  -999.2500
